[{"name": "A Byrne", "address": "County 83, Church St, Antrim BT41 4BE, United Kingdom", "latitude": 54.7137122, "longitude": -6.2131001, "rating": 4.8, "county": "Antrim"}, {"name": "Fuel station", "address": "Meadow Lands, Antrim BT41 4EZ, United Kingdom", "latitude": 54.7296128, "longitude": -6.2269464, "rating": 5, "county": "Antrim"}, {"name": "Maxol Service Station Townparks", "address": "15 Ballymena Rd, Antrim BT41 4JG, United Kingdom", "latitude": 54.7211, "longitude": -6.2206499, "rating": 4, "county": "Antrim"}, {"name": "Riverside Fuels", "address": "1B Steeple Rd, Antrim BT41 1AF, United Kingdom", "latitude": 54.7203343, "longitude": -6.2128371, "rating": 0, "county": "Antrim"}, {"name": "Tesco Petrol Station", "address": "28 Castle Way, Antrim BT41 4BU, United Kingdom", "latitude": 54.7156835, "longitude": -6.2153374, "rating": 4.1, "county": "Antrim"}, {"name": "Maxol Service Station A26 Tannaghmore", "address": "157 Lisnevenagh Rd, Antrim BT41 2JU, United Kingdom", "latitude": 54.7853946, "longitude": -6.2517584, "rating": 4.3, "county": "Antrim"}, {"name": "Star", "address": "Antrim BT41 2BA, United Kingdom", "latitude": 54.7038589, "longitude": -6.1761164, "rating": 0, "county": "Antrim"}, {"name": "Emo express 24/7", "address": "Belfast International Airport, Airport Rd, Aldergrove, Crumlin BT29 4ZR, United Kingdom", "latitude": 54.6646838, "longitude": -6.2143162, "rating": 3.5, "county": "Antrim"}, {"name": "Maxol", "address": "215 Castle Rd, Randalstown, Antrim BT41 2EB, United Kingdom", "latitude": 54.74511829999999, "longitude": -6.3058815, "rating": 0, "county": "Antrim"}, {"name": "Airport Road Service Station", "address": "11 Tully Rd, Crumlin BT29 4SW, United Kingdom", "latitude": 54.6414258, "longitude": -6.155750599999999, "rating": 4.3, "county": "Antrim"}, {"name": "Wrong Fuel NI", "address": "88 Church Rd, Randalstown, Antrim BT41 3JW, United Kingdom", "latitude": 54.74906069999999, "longitude": -6.355166499999999, "rating": 5, "county": "Antrim"}, {"name": "bp", "address": "40 New St, Randalstown, Antrim BT41 3AF, United Kingdom", "latitude": 54.7481581, "longitude": -6.3217088, "rating": 3.5, "county": "Antrim"}, {"name": "Centra", "address": "Roguery Rd, Antrim BT41 3TH, United Kingdom", "latitude": 54.7577019, "longitude": -6.4575399, "rating": 4.4, "county": "Antrim"}, {"name": "Maxol Service Station Braid River", "address": "10 North Rd, Antrim, Ballymena BT43 5DA, United Kingdom", "latitude": 54.865814, "longitude": -6.281218, "rating": 3.8, "county": "Antrim"}, {"name": "Tesco Petrol Station", "address": "39 Station Rd, Antrim BT41 4AB, United Kingdom", "latitude": 54.7153461, "longitude": -6.2131998, "rating": 4.6, "county": "Antrim"}]