[{"name": "Go Petrol Station", "address": "49 Railway St, Armagh BT61 7HP, United Kingdom", "latitude": 54.3541445, "longitude": -6.6547604, "rating": 4.3}, {"name": "Star", "address": "A3, Armagh BT60 4AD, United Kingdom", "latitude": 54.3430378, "longitude": -6.658770499999999, "rating": 4.2}, {"name": "Circle-K", "address": "Moy Rd, Armagh BT61 7ND, United Kingdom", "latitude": 54.3554726, "longitude": -6.6575435, "rating": 0}, {"name": "Curran at Kearneys", "address": "10 Cathedral Rd, Armagh BT61 7QX, United Kingdom", "latitude": 54.3511748, "longitude": -6.658384, "rating": 4.7}, {"name": "bp", "address": "132 Newry Rd, Armagh BT60 1ES, United Kingdom", "latitude": 54.3379838, "longitude": -6.6396381, "rating": 4.5}, {"name": "Texaco", "address": "Armagh BT60 4AD, United Kingdom", "latitude": 54.3430336, "longitude": -6.6587735, "rating": 5}, {"name": "Topaz", "address": "1 Killylea Rd, Killylea, Armagh BT60 4AN, United Kingdom", "latitude": 54.3458379, "longitude": -6.6643623, "rating": 4.6}, {"name": "Armabridge Fuels", "address": "18 Legar Hill Park, Armagh BT60 4BX, United Kingdom", "latitude": 54.35229709999999, "longitude": -6.675526, "rating": 0}, {"name": "Emo Oil - Deansbridge Supermarket Ltd", "address": "19A Portadown Rd, College Hill, Armagh BT61 9DF, United Kingdom", "latitude": 54.3530036, "longitude": -6.6407098, "rating": 4}, {"name": "Maxol", "address": "127 Annareagh Rd, Hamiltonsbawn, Armagh BT61 9SA, United Kingdom", "latitude": 54.3421725, "longitude": -6.5424869, "rating": 0}, {"name": "Go Petrol Station", "address": "188 Portadown Rd, Richhill, Armagh BT61 9LG, United Kingdom", "latitude": 54.3838071, "longitude": -6.5493491, "rating": 4.4}, {"name": "Foyduff Filling Station", "address": "350 Monaghan Rd, Armagh BT60 4JQ, United Kingdom", "latitude": 54.2758326, "longitude": -6.8654727, "rating": 4}, {"name": "Bawn Service Station", "address": "125 Annareagh Rd, Richhill, Hamiltonsbawn, Armagh BT61 9JY, United Kingdom", "latitude": 54.3420394, "longitude": -6.542563899999999, "rating": 3}, {"name": "Whitecross Filling Station", "address": "15 Kingsmill Road, Armagh BT60 2SS, United Kingdom", "latitude": 54.2221608, "longitude": -6.4842222, "rating": 4.2}, {"name": "Gosford Road Service Station", "address": "145 Gosford Rd, Loughgilly, Armagh BT60 2DE, United Kingdom", "latitude": 54.2594746, "longitude": -6.4509702, "rating": 4.6}, {"name": "Texaco", "address": "181 Portadown Rd, Richhill, Armagh BT61 9LG, United Kingdom", "latitude": 54.38154729999999, "longitude": -6.5506524, "rating": 4.3}, {"name": "Gas station", "address": "Keady, Armagh BT60 3EW, United Kingdom", "latitude": 54.25562720000001, "longitude": -6.7003229, "rating": 0}, {"name": "Texaco", "address": "County, 42 Dobbin Road Craigavon, Armagh BT62 4EY, United Kingdom", "latitude": 54.39924389999999, "longitude": -6.485835799999999, "rating": 5}, {"name": "CIRCLE K", "address": "31 Keady St, Markethill, Armagh BT60 1PN, United Kingdom", "latitude": 54.2982196, "longitude": -6.5237009, "rating": 0}, {"name": "Fruitfield Service Station", "address": "181 Portadown Rd, Richhill, Armagh BT61 9LG, United Kingdom", "latitude": 54.3810003, "longitude": -6.550458, "rating": 4.4}, {"name": "MJM Veggie Oil", "address": "32 Brootally Rd, Milford, Armagh BT60 4DY, United Kingdom", "latitude": 54.3109905, "longitude": -6.7460714, "rating": 0}, {"name": "Carna Service Station", "address": "199 Castleblayney Rd, Keady, Armagh BT60 3HY, United Kingdom", "latitude": 54.18878849999999, "longitude": -6.734196499999999, "rating": 4}, {"name": "Carr Fuels", "address": "50 Drumherney Rd, Keady, Armagh BT60 3AT, United Kingdom", "latitude": 54.1960871, "longitude": -6.7473528, "rating": 0}, {"name": "Falcon Fuel (N.i.) Ltd", "address": "137 Markethill Rd, Portadown, Craigavon BT62 3SL, United Kingdom", "latitude": 54.3700857, "longitude": -6.4784605, "rating": 0}, {"name": "Go Petrol Station", "address": "41 Armagh Rd, Portadown, Craigavon BT62 3DJ, United Kingdom", "latitude": 54.4155951, "longitude": -6.45086, "rating": 4.3}, {"name": "Silverstream Service Station Limited", "address": "353 Monaghan Rd, Middletown, Northern Ireland BT60, United Kingdom", "latitude": 54.2757468, "longitude": -6.8661616, "rating": 0}, {"name": "Eurospar", "address": "41 Charlemont St, Moy, Dungannon BT71 7SL, United Kingdom", "latitude": 54.4452987, "longitude": -6.688879399999999, "rating": 4.4}, {"name": "Stewarts cash stores", "address": "31 Keady St, Markethill, Armagh BT60 1PN, United Kingdom", "latitude": 54.29829119999999, "longitude": -6.5234964, "rating": 3.5}, {"name": "A29 Fuel Centre", "address": "0EU, 3 Armagh Rd, Newtownhamilton, Newry BT35 0BZ, United Kingdom", "latitude": 54.1934274, "longitude": -6.5758744, "rating": 4.3}, {"name": "Silverstream Service Station Ltd", "address": "Silverstream, Co. Monaghan, Ireland", "latitude": 54.2700596, "longitude": -6.8739728, "rating": 4.4}, {"name": "Dev-Oil", "address": "Newry BT35 9JE, United Kingdom", "latitude": 54.0558009, "longitude": -6.6209867, "rating": 3.8}, {"name": "Topaz Filling Station", "address": "42 Dobbin Rd, Portadown, Craigavon BT62 4EY, United Kingdom", "latitude": 54.3992178, "longitude": -6.4860352, "rating": 4.5}, {"name": "Maxol Service Station, McDonald's Lurgan", "address": "2 Gilpinstown, Lurgan, Craigavon BT66 8RL, United Kingdom", "latitude": 54.4576666, "longitude": -6.3570319, "rating": 4.5}, {"name": "Scotch Street Filling Station Woolseys Costcutter", "address": "106 Moy Rd, Portadown, Scotch Street, Craigavon BT62 1QP, United Kingdom", "latitude": 54.44036939999999, "longitude": -6.5108692, "rating": 4.8}, {"name": "Xpress 24 Hour Filling Station", "address": "10A Dobbin Rd, Portadown, Craigavon BT62 4EY, United Kingdom", "latitude": 54.4021857, "longitude": -6.4782055, "rating": 4.4}, {"name": "Emo Oil - EUROSPAR P&G", "address": "11 Brownstown Rd, Portadown, Craigavon BT62 4EB, United Kingdom", "latitude": 54.4206331, "longitude": -6.456616100000001, "rating": 0}, {"name": "Maxol Service Station, Poole's", "address": "21-23 Main St, Moira, Craigavon BT67 0LE, United Kingdom", "latitude": 54.4790329, "longitude": -6.2303088, "rating": 3.8}, {"name": "Texaco", "address": "Drumgormal, Dungannon BT71 7PQ, United Kingdom", "latitude": 54.4798021, "longitude": -6.781548399999999, "rating": 5}, {"name": "Laverys Filling Station", "address": "256 Obins St, Portadown, Craigavon BT62 1BZ, United Kingdom", "latitude": 54.43003119999999, "longitude": -6.4589238, "rating": 4.3}, {"name": "Maxol Service Station, Litter's", "address": "24 Dungannon Rd, Portadown, Craigavon BT62 1LF, United Kingdom", "latitude": 54.43435849999999, "longitude": -6.4653632, "rating": 4.7}, {"name": "Centra", "address": "16 Main St, Moira, Craigavon BT67 0LE, United Kingdom", "latitude": 54.4793479, "longitude": -6.2302209, "rating": 4.1}, {"name": "Super Unleaded NI", "address": "7 Main St, Loughbrickland, Banbridge BT32 3NQ, United Kingdom", "latitude": 54.3149384, "longitude": -6.303419799999999, "rating": 5}, {"name": "Solo", "address": "Armagh BT60 2DE, United Kingdom", "latitude": 54.2599876, "longitude": -6.4520095, "rating": 5}, {"name": "Emo - Daly's Service Station Eglish", "address": "Eglish Rd, Eglish, Dungannon BT71 7DW, United Kingdom", "latitude": 54.4453747, "longitude": -6.7951986, "rating": 4.8}, {"name": "Emo Verner's Inn Service Station", "address": "174 Tamnamore Rd, Dungannon BT71 6NR, United Kingdom", "latitude": 54.4895307, "longitude": -6.6348802, "rating": 5}, {"name": "White Mountain Service Station", "address": "19 Mullaghglass Rd, Lisburn BT28 3SN, United Kingdom", "latitude": 54.5482088, "longitude": -6.076376199999999, "rating": 4.1}, {"name": "Maxol", "address": "Carrickasticken Rd, Newry BT35 9RL, United Kingdom", "latitude": 54.0614299, "longitude": -6.4375797, "rating": 0}, {"name": "Emo Oil", "address": "10 Main St, Waringstown, Craigavon BT66 7RU, United Kingdom", "latitude": 54.4364179, "longitude": -6.3008839, "rating": 4.6}, {"name": "Arrow Petrol 24hr Filling Station", "address": "Co .Tyrone, 68 Main St, Trillick, Omagh BT78 3SX, United Kingdom", "latitude": 54.4503107, "longitude": -7.489671899999999, "rating": 4.9}, {"name": "Airport Road Service Station", "address": "11 Tully Rd, Crumlin BT29 4SW, United Kingdom", "latitude": 54.6414258, "longitude": -6.155750599999999, "rating": 4.3}, {"name": "Go Petrol Station", "address": "Broad Rd, Tirkeenan, Monaghan, Ireland", "latitude": 54.245537, "longitude": -6.967755899999999, "rating": 3.2}, {"name": "Fiveways Shop and Service Station", "address": "101 Armagh Rd, Newry BT35 6PW, United Kingdom", "latitude": 54.1914378, "longitude": -6.3511772, "rating": 3.9}, {"name": "Emo Oil - TRAINOR BROS FILLING STATION", "address": "Down, 20 Chapel St, Poyntzpass, Newry BT35 6SY, United Kingdom", "latitude": 54.29420870000001, "longitude": -6.375172999999999, "rating": 0}, {"name": "McGeough Service Station", "address": "68 Edenappa Road, Newry BT35 8HU, United Kingdom", "latitude": 54.070436, "longitude": -6.3742975, "rating": 5}, {"name": "Emo Oil - Gregorys Service Station", "address": "109 Camlough Rd, Bessbrook, Newry BT35 7EE, United Kingdom", "latitude": 54.18471659999999, "longitude": -6.3916368, "rating": 3.5}, {"name": "Cabragh Filling Station", "address": "230 Ballygawley Rd, Cabragh, Dungannon BT70 1TF, United Kingdom", "latitude": 54.4893996, "longitude": -6.917097399999999, "rating": 4}, {"name": "Asda Petrol Station, Car Charging Station", "address": "128 Bridge St, Portadown, Craigavon BT63 5AQ, United Kingdom", "latitude": 54.4277473, "longitude": -6.4358076, "rating": 4.4}, {"name": "Maxol Service Station, Murphy's", "address": "Warrenpoint Rd, Newry BT34 2PF, United Kingdom", "latitude": 54.165374, "longitude": -6.333597999999999, "rating": 4.1}, {"name": "Low Cost Fuels", "address": "186 Glassdrumman Rd, Newry BT34 4QL, United Kingdom", "latitude": 54.1206889, "longitude": -5.8984238, "rating": 0}, {"name": "bp", "address": "285 Bridge St, Portadown, Craigavon BT63 5AR, United Kingdom", "latitude": 54.4300606, "longitude": -6.430762100000001, "rating": 4.6}]