[{"name": "Circle K Greenlane", "address": "Green Ln, Rathnapish, Carlow, R93 X6Y7, Ireland", "latitude": 52.8399116, "longitude": -6.9191524, "rating": 4.1, "county": "Carlow"}, {"name": "Maxol Service Station, Hannon's", "address": "O'Brien Rd, Rathnapish, Carlow, Ireland", "latitude": 52.8416349, "longitude": -6.909082, "rating": 4.2, "county": "Carlow"}, {"name": "Circle K", "address": "Tullow Rd, Carlow, R93 F7X3, Ireland", "latitude": 52.83192, "longitude": -6.909052099999999, "rating": 2.7, "county": "Carlow"}, {"name": "EMO", "address": "Pollerton Rd, Pollerton Big, Carlow, R93 H9F7, Ireland", "latitude": 52.8438862, "longitude": -6.900433, "rating": 2, "county": "Carlow"}, {"name": "Top Oil Staplestown Service Station", "address": "Staplestown Rd, Carlow, R93 E2R7, Ireland", "latitude": 52.8354431, "longitude": -6.915584399999999, "rating": 4.4, "county": "Carlow"}, {"name": "Fitzpatricks Garage Carlow", "address": "Carlow, Pollerton Big, Carlow, Ireland", "latitude": 52.8475777, "longitude": -6.8988438, "rating": 0, "county": "Carlow"}, {"name": "Campus Oil", "address": "Maryborough St, Graiguecullen, Carlow, R93 C8Y6, Ireland", "latitude": 52.8381041, "longitude": -6.937922599999999, "rating": 4.6, "county": "Carlow"}, {"name": "Maxol", "address": "Dublin Rd, Pollerton Big, Carlow, Ireland", "latitude": 52.8475912, "longitude": -6.8988632, "rating": 4.1, "county": "Carlow"}, {"name": "Applegreen", "address": "Tullow Rd, Chapelstown, Carlow, R93 WK61, Ireland", "latitude": 52.8311607, "longitude": -6.9064481, "rating": 4.3, "county": "Carlow"}, {"name": "Amber Carlow", "address": "Graigue, Carlow, Ireland", "latitude": 52.8386322, "longitude": -6.942548899999999, "rating": 4.4, "county": "Carlow"}, {"name": "Circle K", "address": "Dublin Rd, Deerpark, Carlow, R93 D6D5, Ireland", "latitude": 52.84595299999999, "longitude": -6.910992999999999, "rating": 4.2, "county": "Carlow"}, {"name": "GreatGas - Munnelly's Service Station", "address": "Kilkenny Rd, Moanacurragh, Carlow, Ireland", "latitude": 52.82602499999999, "longitude": -6.9381195, "rating": 3.4, "county": "Carlow"}, {"name": "Tullow Road Service Station", "address": "Carlow, Ireland", "latitude": 52.8320301, "longitude": -6.909293, "rating": 0, "county": "Carlow"}, {"name": "Circle K Express", "address": "Graigue, Co. Laois, Ireland", "latitude": 52.8403586, "longitude": -6.946284599999999, "rating": 4.3, "county": "Carlow"}, {"name": "Centra Carlow", "address": "Maxol service Station, O'Brien Rd, Carlow, R93 K4N8, Ireland", "latitude": 52.8413792, "longitude": -6.908920500000001, "rating": 3, "county": "Carlow"}, {"name": "Top Oil Bennekerry Service Station", "address": "Hacketstown Rd, Bennekerry, Co. Carlow, R93 POK6, Ireland", "latitude": 52.8357237, "longitude": -6.873227000000001, "rating": 4.4, "county": "Carlow"}, {"name": "Applegreen", "address": "Killeshin Rd, Graigue, Carlow, Co. Laois, R93 RW62, Ireland", "latitude": 52.8403811, "longitude": -6.9589444, "rating": 4.3, "county": "Carlow"}, {"name": "Circle K", "address": "Junction 5, M9, Rathcrogue, Co. Carlow, Ireland", "latitude": 52.8024892, "longitude": -6.8825762, "rating": 4.2, "county": "Carlow"}, {"name": "Maxol N80", "address": "Rathnapish, Carlow, Ireland", "latitude": 52.84164089999999, "longitude": -6.908477899999999, "rating": 4.1, "county": "Carlow"}, {"name": "Topaz", "address": "Rathnapish, Carlow, Ireland", "latitude": 52.8457776, "longitude": -6.9115654, "rating": 0, "county": "Carlow"}, {"name": "Circle K tullow", "address": "Templeowen, Co. Carlow, Ireland", "latitude": 52.7982232, "longitude": -6.743500999999999, "rating": 4.3, "county": "Carlow"}, {"name": "Topaz", "address": "Templeowen, Co. Carlow, Ireland", "latitude": 52.79819209999999, "longitude": -6.7435581, "rating": 4.4, "county": "Carlow"}, {"name": "Currans Service Station", "address": "Carlow Rd, Ballyknockan, Leighlinbridge, Co. Carlow, R93 K7C1, Ireland", "latitude": 52.7371972, "longitude": -6.9757421, "rating": 4.7, "county": "Carlow"}, {"name": "Flogas", "address": "Templeowen, Co. Carlow, Ireland", "latitude": 52.79779689999999, "longitude": -6.7481645, "rating": 0, "county": "Carlow"}, {"name": "O'Toole's Filling Station", "address": "Templeowen, Tullow, Co. Carlow, R93 C4EO, Ireland", "latitude": 52.7982277, "longitude": -6.743492400000001, "rating": 4.6, "county": "Carlow"}, {"name": "Centra Leighlinbridge", "address": "14 Seskin Rd, Tomnaslough, Leighlinbridge, Co. Carlow, R93 W594, Ireland", "latitude": 52.7384828, "longitude": -6.985443, "rating": 4.1, "county": "Carlow"}, {"name": "Inver Castledermot", "address": "Main St R448 Dublin Road, Castledermot, Co. Kildare, R14 EK58, Ireland", "latitude": 52.9159857, "longitude": -6.837555, "rating": 4.5, "county": "Carlow"}, {"name": "Applegreen", "address": "Thomas Traynor St, Templeowen, Tullow, Co. Carlow, R93 YR68, Ireland", "latitude": 52.80301129999999, "longitude": -6.7397353, "rating": 4.1, "county": "Carlow"}, {"name": "Drive service station Leighlinbridge", "address": "Seskin Rd, Tomnaslough, Leighlinbridge, Co. Carlow, R93 C9K5, Ireland", "latitude": 52.73842879999999, "longitude": -6.985445899999999, "rating": 0, "county": "Carlow"}, {"name": "Certa", "address": "Upper Kilree St, Kilcarrig, Muine Bheag, Co. Carlow, R21 NP46, Ireland", "latitude": 52.700256, "longitude": -6.957318, "rating": 4.6, "county": "Carlow"}, {"name": "Top Oil Kearney's of Fenagh", "address": "Ballon Hill, Fenagh Road, Co. Carlow, R21 YX75, Ireland", "latitude": 52.7129923, "longitude": -6.847395000000001, "rating": 4.2, "county": "Carlow"}, {"name": "Texaco", "address": "Ballon, Co. Carlow, Ireland", "latitude": 52.74153579999999, "longitude": -6.7710909, "rating": 4.2, "county": "Carlow"}, {"name": "Inver", "address": "Kilree, Road, Co. Carlow, R21 V521, Ireland", "latitude": 52.688852, "longitude": -6.9630575, "rating": 4.4, "county": "Carlow"}, {"name": "Texaco", "address": "Kilree St, Kilcarrig, Muine Bheag, Co. Carlow, R21 NP46, Ireland", "latitude": 52.7006266, "longitude": -6.9581483, "rating": 0, "county": "Carlow"}, {"name": "Top N80", "address": "Ballon, Co. Carlow, Ireland", "latitude": 52.7367153, "longitude": -6.767857999999999, "rating": 4.3, "county": "Carlow"}, {"name": "Top Oil Tullow Flynn's Service Station", "address": "Dublin Rd, Tullowphelim, Tullow, Co. Carlow, R93 A2F2, Ireland", "latitude": 52.804388, "longitude": -6.7329677, "rating": 4.4, "county": "Carlow"}, {"name": "Maxol Horan's", "address": "Castledermot, Co. Kildare, Ireland", "latitude": 52.9083882, "longitude": -6.8363063, "rating": 4.3, "county": "Carlow"}]