[{"name": "Circle K", "address": "Dublin Rd, Pollamore Far, Cavan, H12 ER86, Ireland", "latitude": 53.9847122, "longitude": -7.329270499999999, "rating": 4, "county": "Cavan"}, {"name": "Top Oil Rudden Service Station", "address": "Railway Rd, Abbeyland, Cavan, H12 K0V3, Ireland", "latitude": 53.9907035, "longitude": -7.365582700000001, "rating": 3.9, "county": "Cavan"}, {"name": "Bjd Service Station", "address": "Market Street, Abbeyland, Cavan, Ireland", "latitude": 53.9903241, "longitude": -7.360113200000001, "rating": 4.9, "county": "Cavan"}, {"name": "Texaco Service Station, Kiernan's", "address": "Ballinagh Rd, Moynehall, Cavan, H12 N8X0, Ireland", "latitude": 53.9749828, "longitude": -7.3542763, "rating": 4.5, "county": "Cavan"}, {"name": "Kiernans Texaco Service Station/Spar", "address": "Dublin Road, Cavan, Ireland", "latitude": 53.9840072, "longitude": -7.331466900000001, "rating": 4.1, "county": "Cavan"}, {"name": "Maxol Service Station Cullies", "address": "Cullies, Co. Cavan, H12 X6V6, Ireland", "latitude": 54.0098166, "longitude": -7.355987900000001, "rating": 4.4, "county": "Cavan"}, {"name": "Cullies Service Station", "address": "Latt, Co. Cavan, Ireland", "latitude": 54.0098202, "longitude": -7.356322800000001, "rating": 4.6, "county": "Cavan"}, {"name": "Applegreen", "address": "Cootehill Rd, Drumalee, Drumalee Cross, Co. Cavan, H12 P7W7, Ireland", "latitude": 54.00107509999999, "longitude": -7.3535686, "rating": 4, "county": "Cavan"}, {"name": "Applegreen", "address": "Dublin Rd, Raheelagh, Cavan, H12 WA25, Ireland", "latitude": 53.9849111, "longitude": -7.256798099999999, "rating": 4.2, "county": "Cavan"}, {"name": "Topaz", "address": "Pollamore Far, Cavan, Ireland", "latitude": 53.9845589, "longitude": -7.3285557, "rating": 0, "county": "Cavan"}, {"name": "Circle K", "address": "Dublin Road, Knockanoark, Cavan, Ireland", "latitude": 53.9648178, "longitude": -7.2295982, "rating": 0, "county": "Cavan"}, {"name": "Ballinagh Service Station", "address": "N 55, Ballinagh, Co. Cavan, Ireland", "latitude": 53.9334056, "longitude": -7.408024500000001, "rating": 3.3, "county": "Cavan"}, {"name": "Top Oil", "address": "R197 Deanery Street, Corporation Lands, Cavan, Ireland", "latitude": 54.09878339999999, "longitude": -7.4312441, "rating": 0, "county": "Cavan"}, {"name": "Top Oil Cavan Depot", "address": "N54, Knockateery, Cloverhill, Co. Cavan, H14 YW88, Ireland", "latitude": 54.0812985, "longitude": -7.3657343, "rating": 3.7, "county": "Cavan"}, {"name": "SPAR 24 Hour Truck Stop", "address": "Drumacon, Belturbet, Co. Cavan, Ireland", "latitude": 54.1019118, "longitude": -7.4648534, "rating": 3.9, "county": "Cavan"}, {"name": "Topaz", "address": "Corriga, Co. Cavan, Ireland", "latitude": 53.9648127, "longitude": -7.2295966, "rating": 4, "county": "Cavan"}, {"name": "Maxol R154", "address": "Kilnaleck, Co. Cavan, Ireland", "latitude": 53.8613965, "longitude": -7.3207524, "rating": 4.5, "county": "Cavan"}, {"name": "Top Oil Belturbet Erne Hill Service Station", "address": "R197, Centra, Erne Hill, Co. Cavan, H14 YR96, Ireland", "latitude": 54.0987835, "longitude": -7.431245700000001, "rating": 4.3, "county": "Cavan"}, {"name": "MACE Belturbet", "address": "Kilconny, Belturbet, Co. Cavan, Ireland", "latitude": 54.1017258, "longitude": -7.450788699999999, "rating": 4.3, "county": "Cavan"}, {"name": "Circle K Express", "address": "Skelly Oil, Killyfinla, Ballyjamesduff, Co. Cavan, Ireland", "latitude": 53.864841, "longitude": -7.190534, "rating": 4.4, "county": "Cavan"}]