[{"name": "Maxol Service Station Clarecastle", "address": "Clareabbey, Ennis, Co. Clare, V95 T25F, Ireland", "latitude": 52.8240919, "longitude": -8.9773152, "rating": 4.2}, {"name": "Hogans Service Station", "address": "Gort Rd, Ballymaley, Clare, Ireland", "latitude": 52.8719581, "longitude": -8.966555, "rating": 4.8}, {"name": "Texaco N85", "address": "Loughvella, Co. Clare, Ireland", "latitude": 52.85708959999999, "longitude": -9.015893600000002, "rating": 4.4}, {"name": "Tara N67", "address": "Dough, Co. Clare, Ireland", "latitude": 52.6771724, "longitude": -9.6378357, "rating": 3}, {"name": "Inver & Mace Delicatessen", "address": "Lahinch Road, Ennis, Co. Clare, V95 F85P, Ireland", "latitude": 52.8506563, "longitude": -9.003377799999999, "rating": 4.1}, {"name": "Esso Church Street", "address": "Ballyminoge, Co. Clare, Ireland", "latitude": 52.9111, "longitude": -8.53169, "rating": 4.3}, {"name": "Burkes Garage and Filling Station", "address": "The Square, Rathbaun, Lisdoonvarna, Co. Clare, Ireland", "latitude": 53.02907800000001, "longitude": -9.290435, "rating": 4.8}, {"name": "Circle K", "address": "N85 Ennis Rd, Ennistimon, Ennistymon, Co. Clare, V95 EH59, Ireland", "latitude": 52.9378144, "longitude": -9.289618599999999, "rating": 4.3}, {"name": "Emo Liscannor Service Station", "address": "R478, Liscannor, Co. Clare, V95 N92H, Ireland", "latitude": 52.9389929, "longitude": -9.3985205, "rating": 4.1}, {"name": "Inver O' Keeffes Service Station", "address": "O Keefee's Oil, Drumcliffe Rd, Ennis, Co. Clare, V95 AH3V, Ireland", "latitude": 52.8553704, "longitude": -8.991330099999999, "rating": 4.4}, {"name": "Maxol Service Station, Crowe's", "address": "Cloghlea, Sixmilebridge, Co. Clare, Ireland", "latitude": 52.7203234, "longitude": -8.8131743, "rating": 4.2}, {"name": "Texaco", "address": "Main St, Ruan Commons, Ruan, Co. Clare, V95 DP27, Ireland", "latitude": 52.9292708, "longitude": -8.9910003, "rating": 0}, {"name": "Applegreen", "address": "Drumquin, Ennis, Co. Clare, V95 E2XE, Ireland", "latitude": 52.76669769999999, "longitude": -9.026199199999999, "rating": 5}, {"name": "Circle K", "address": "Tullyvarraga, Shannon, Co. Clare, V14 K201, Ireland", "latitude": 52.7126169, "longitude": -8.8754823, "rating": 3.8}, {"name": "Emo Oil Ennistymon", "address": "Malone's Service Station, Lahinch Rd, Ennistimon, Ennistymon, Co. Clare, V95 KV1F, Ireland", "latitude": 52.93952059999999, "longitude": -9.2967556, "rating": 4.3}, {"name": "Emo Oil - O'Halloran's Ltd", "address": "R462, Tulla, Co. Clare, Ireland", "latitude": 52.8644535, "longitude": -8.7612211, "rating": 4.5}, {"name": "Adfuels, Ennis", "address": "69 Bruach Na h'Abhainn, Quin Rd, Bunnow, Ennis, Co. Clare, V95 F9C2, Ireland", "latitude": 52.8385664, "longitude": -8.9647064, "rating": 0}, {"name": "Texaco", "address": "Drumquin, Ennis, Co. Clare, V95 E2XE, Ireland", "latitude": 52.76669769999999, "longitude": -9.026199199999999, "rating": 0}, {"name": "Inver", "address": "Ennistymon Rd, Leagard North, Miltown Malbay, Co. Clare, V95 PWK1, Ireland", "latitude": 52.8586822, "longitude": -9.403866599999999, "rating": 4.7}, {"name": "Maxol Service Station, Whelan's", "address": "Ennis Rd, Kilrush, Co. Clare, V15 KH51, Ireland", "latitude": 52.6419459, "longitude": -9.479052, "rating": 4.5}, {"name": "Western Service Station", "address": "Quin Road, R469, Ennis, V95 FEP9, Ireland", "latitude": 52.8383991, "longitude": -8.964718, "rating": 4.2}, {"name": "Great Gas", "address": "Tulla Rd, Knockanoura, Ennis, Co. Clare, V95 W3W2, Ireland", "latitude": 52.8543361, "longitude": -8.9697366, "rating": 0}, {"name": "Vaughans Daybreak Cooraclare", "address": "R483, Cooraclare Road, Kilrush, Co. Clare, Ireland", "latitude": 52.7048646, "longitude": -9.4173625, "rating": 3.8}, {"name": "Daybreak Convenience Store", "address": "Quin Rd, Bunnow, Ennis, Co. Clare, Ireland", "latitude": 52.8384271, "longitude": -8.964702899999999, "rating": 0}, {"name": "Certa", "address": "Tulla Rd, Knockanoura, Ennis, Co. Clare, Ireland", "latitude": 52.8543396, "longitude": -8.9697277, "rating": 4.8}, {"name": "Gasolinera Kilkee", "address": "Dough, Co. Clare, Ireland", "latitude": 52.67746, "longitude": -9.638972599999999, "rating": 4.5}, {"name": "Texaco", "address": "Rho Connolly, Feighroe, Connolly, Co. Clare, Ireland", "latitude": 52.8291292, "longitude": -9.177564799999999, "rating": 5}, {"name": "Inver", "address": "Crusheen, Co. Clare, Ireland", "latitude": 52.9389233, "longitude": -8.8967621, "rating": 5}, {"name": "Applegreen", "address": "Limerick Rd, Clonroad More, Ennis, Co. Clare, V95 C3XW, Ireland", "latitude": 52.8355942, "longitude": -8.982453, "rating": 4.2}, {"name": "Emo - J & M Stritch's Filling Station", "address": "Newtown, Shantraud, Killaloe, Co. Clare, Ireland", "latitude": 52.8089558, "longitude": -8.4523341, "rating": 2.5}, {"name": "Top Oil Lock Quay Service Station", "address": "1-5 Clare St, Limerick, V94 CFA4, Ireland", "latitude": 52.666425, "longitude": -8.6173377, "rating": 4.1}, {"name": "Daybreak", "address": "Malone's Service Station, Lahinch Rd, Ennistimon, Ennistymon, Co. Clare, Ireland", "latitude": 52.93948109999999, "longitude": -9.2965617, "rating": 5}, {"name": "Top Oil", "address": "Doora, Ennis, Co. Clare, V95 PK58, Ireland", "latitude": 52.8331114, "longitude": -8.9199332, "rating": 0}, {"name": "Ballyvaughan Service Station", "address": "3, Ballyvaughan, Co. Clare, H91 PH9X, Ireland", "latitude": 53.1150062, "longitude": -9.1501062, "rating": 4.4}, {"name": "electric filling station", "address": "1 Bank Pl, Lifford, Ennis, Co. Clare, V95 FR1H, Ireland", "latitude": 52.8448814, "longitude": -8.983435799999999, "rating": 0}, {"name": "Estuary", "address": "Cooraclare Road, Kilmacduane West, Kilrush, Co. Clare, Ireland", "latitude": 52.7048962, "longitude": -9.417381599999999, "rating": 4.7}, {"name": "Circle K", "address": "Gort Rd, Lifford, Ennis, Co. Clare, Ireland", "latitude": 52.85298239999999, "longitude": -8.9831591, "rating": 4}, {"name": "Tara Oil", "address": "5 Old Bunratty Rd, Bunratty West, Shannon, Co. Clare, V95 YR44, Ireland", "latitude": 52.69928969999999, "longitude": -8.8200336, "rating": 4.5}, {"name": "Circle K", "address": "Limerick Rd, Clonroad More, Ennis, Co. Clare, V95 YEY5, Ireland", "latitude": 52.8308484, "longitude": -8.979609600000002, "rating": 3.7}, {"name": "Carrigs Mace & Applegreen Service Station", "address": "Drumquin, Tiermaclane, Co. Clare, V95 E2XE, Ireland", "latitude": 52.7667876, "longitude": -9.0261915, "rating": 4.9}, {"name": "Emo Lakefied Service Station", "address": "Ennis Rd, Annagh, Corofin, Co. Clare, Ireland", "latitude": 52.937632, "longitude": -9.061648, "rating": 4.4}, {"name": "Top Oil Service Station Ennis", "address": "College View, Limerick Rd, Clonroad More, Ennis, Co. Clare, V95 YEY5, Ireland", "latitude": 52.8343844, "longitude": -8.981669799999999, "rating": 4.4}, {"name": "Amber", "address": "Spanish Point Rd, Poulawillin, Miltown Malbay, Co. Clare, Ireland", "latitude": 52.85134069999999, "longitude": -9.4087493, "rating": 4.9}, {"name": "Top Oil Clooney Stores", "address": "R352 Quin, Ennis, Co. Clare, V95 XP6H, Ireland", "latitude": 52.8642797, "longitude": -8.8683739, "rating": 4.7}, {"name": "Circle K Crowley Garage", "address": "5 Ennis Rd, Kilrush, Co. Clare, V15 NF82, Ireland", "latitude": 52.64175669999999, "longitude": -9.4806352, "rating": 4.6}, {"name": "Independent", "address": "Shannon Rd, Bunratty West, Bunratty, Co. Clare, Ireland", "latitude": 52.69944719999999, "longitude": -8.8198177, "rating": 5}, {"name": "Applegreen", "address": "R463, Shantraud, Killaloe, Co. Clare, V94 R8DX, Ireland", "latitude": 52.80320589999999, "longitude": -8.4407122, "rating": 3.9}, {"name": "Topaz Liscasey", "address": "Talty's, Liscasey, Ennis, Co. Clare, V95 A46D, Ireland", "latitude": 52.74029299999999, "longitude": -9.170645, "rating": 4.2}, {"name": "Maxol & O'Keeffes Spar R352 - spar express tulla road", "address": "Roslevan Stores, Tulla Rd, Rosslevan, Ennis, Co. Clare, V95 F98V, Ireland", "latitude": 52.8573926, "longitude": -8.9483602, "rating": 4}, {"name": "Top Oil Liddys Costcutter Ennis", "address": "Mill Rd, Cloughleigh, Ennis, Co. Clare, V95 F89A, Ireland", "latitude": 52.8444468, "longitude": -8.988807399999999, "rating": 4.2}, {"name": "Applegreen", "address": "Coonagh Cross Shopping Centre, Ennis Rd, Knock, Cork, Co. Limerick, V94 PR8H, Ireland", "latitude": 52.67505310000001, "longitude": -8.6781429, "rating": 4.2}, {"name": "Midwestern Oil", "address": "Doora, Ennis, Co. Clare, V95 PK58, Ireland", "latitude": 52.8331114, "longitude": -8.9199332, "rating": 0}, {"name": "TEXACO Station Shannon", "address": "Airport Road N19, 1st roundabout le, Tullyvarraga, Shannon, Co. Clare, Ireland", "latitude": 52.709582, "longitude": -8.8777967, "rating": 4.5}, {"name": "Sheedys", "address": "N68 Darragh, Ennis, Co. Clare, V95 RR97, Ireland", "latitude": 52.7945536, "longitude": -9.0613954, "rating": 5}, {"name": "Darragh Service Station", "address": "Darragh North, Co. Clare, Ireland", "latitude": 52.7944363, "longitude": -9.061334, "rating": 4.6}, {"name": "Fitzpatricks Circle K Service Station/Costcutter", "address": "Ennis Rd, Kilmihil, Kilmihill, Co. Clare, Ireland", "latitude": 52.7205976, "longitude": -9.316177999999999, "rating": 4.6}, {"name": "Shannon Service Station And Car Valeting", "address": "Shannon Town Centre, Tullyvarraga, Shannon, Co. Clare, Ireland", "latitude": 52.70942489999999, "longitude": -8.880018000000002, "rating": 4.2}, {"name": "Halpins Service Station", "address": "Limerick Rd, Boheraroan, Newmarket on Fergus, Co. Clare, Ireland", "latitude": 52.7583484, "longitude": -8.894712, "rating": 4.3}, {"name": "Michael O'Reilly Oil Ltd", "address": "Edenvale, Ennis, Co. Clare, V95 PT99, Ireland", "latitude": 52.8197266, "longitude": -9.0256669, "rating": 4.7}, {"name": "Campus N68", "address": "Cahircalla Beg, Co. Clare, Ireland", "latitude": 52.8294723, "longitude": -8.9965286, "rating": 3}]