[{"name": "Top Oil South Link", "address": "S Link Rd, Ballintemple, Cork, T12 K642, Ireland", "latitude": 51.8946268, "longitude": -8.462188200000002, "rating": 4.5, "county": "Cork"}, {"name": "Circle K", "address": "Frankfield Service Station, Kinsale Rd, Curraghconway, Cork, T12 Y1YY, Ireland", "latitude": 51.8718948, "longitude": -8.470537799999999, "rating": 3.2, "county": "Cork"}, {"name": "Maxol Service Station Pouladuff Road", "address": "Pouladuff Road, The Lough, Cork, T12 CCY8, Ireland", "latitude": 51.8879883, "longitude": -8.4826383, "rating": 4.3, "county": "Cork"}, {"name": "Westlink Service Station", "address": "Lower Pouladuff Rd, Ballyphehane, CORK, T13 A3XD, Ireland", "latitude": 51.8731932, "longitude": -8.4862758, "rating": 4.2, "county": "Cork"}, {"name": "Circle K", "address": "E Douglas St, Douglas, Cork, T12 K8NR, Ireland", "latitude": 51.8780691, "longitude": -8.4363414, "rating": 3.2, "county": "Cork"}, {"name": "Marina Filling Station", "address": "Victoria Rd, Monahan Rd, Ballintemple, Cork, T12 H9CF, Ireland", "latitude": 51.8967648, "longitude": -8.457802899999999, "rating": 4.2, "county": "Cork"}, {"name": "Applegreen", "address": "Togher Rd, Lehenagh Beg, Cork, T12 KR89, Ireland", "latitude": 51.8741589, "longitude": -8.4956446, "rating": 4.1, "county": "Cork"}, {"name": "Statoil Blackrock Road", "address": "Ballintemple, Cork, Ireland", "latitude": 51.8967074, "longitude": -8.420759300000002, "rating": 4, "county": "Cork"}, {"name": "Castle Road Filling Station", "address": "3 Blackrock Rd, Blackrock, Cork, T12 X2N8, Ireland", "latitude": 51.8966139, "longitude": -8.4207582, "rating": 0, "county": "Cork"}, {"name": "Lee Oil Cork", "address": "Marina Commercial Park, Ballintemple, Cork, Ireland", "latitude": 51.8986792, "longitude": -8.449153299999999, "rating": 0, "county": "Cork"}, {"name": "Texaco O'Reillys", "address": "10 Leitrim St, Cork, Ireland", "latitude": 51.9037376, "longitude": -8.4722484, "rating": 4.6, "county": "Cork"}, {"name": "Circle K", "address": "Tivoli, Cork, T23 D9PF, Ireland", "latitude": 51.9031895, "longitude": -8.4284455, "rating": 3.5, "county": "Cork"}, {"name": "Firgrove Service Station", "address": "39 Bishopstown Rd, Glasheen, Cork, Ireland", "latitude": 51.879328, "longitude": -8.5178485, "rating": 5, "county": "Cork"}, {"name": "Circle K", "address": "Murphy's Service Station, Vicars Rd, Togher, Cork, T12 TX6Y, Ireland", "latitude": 51.8792012, "longitude": -8.487934599999999, "rating": 4.3, "county": "Cork"}, {"name": "Circle K", "address": "Bandon Road, Ardarostig, Cork, T12 AYF8, Ireland", "latitude": 51.8727502, "longitude": -8.5234363, "rating": 4.1, "county": "Cork"}, {"name": "Maxol Service Station Douglas Road", "address": "Dunmahon, S Douglas Rd, Ballinlough, Cork, T12 K6EK, Ireland", "latitude": 51.8813436, "longitude": -8.444136499999999, "rating": 4.2, "county": "Cork"}, {"name": "Circle K", "address": "Commons Road, Cork, T23 W0XW, Ireland", "latitude": 51.91998359999999, "longitude": -8.482745699999999, "rating": 3.3, "county": "Cork"}, {"name": "Circle K", "address": "Blackrock Rd, Blackrock, Cork, Ireland", "latitude": 51.8966642, "longitude": -8.420771, "rating": 4.1, "county": "Cork"}, {"name": "O'Brien's Bandon Road Junction", "address": "Bandon Road, Garranedarragh, Cork, Ireland", "latitude": 51.8718237, "longitude": -8.5221942, "rating": 4.2, "county": "Cork"}, {"name": "Applegreen", "address": "N Ring Rd, Ballyvolane, Cork, T23 X0HW, Ireland", "latitude": 51.9146813, "longitude": -8.4486802, "rating": 4.3, "county": "Cork"}, {"name": "Maxol Service Station Wilton", "address": "Glasheen Rd, Wilton, Cork, T12 FYN4, Ireland", "latitude": 51.8833593, "longitude": -8.5048769, "rating": 4.3, "county": "Cork"}, {"name": "Discount Fuel", "address": "Knocknaheeney, Cork, Ireland", "latitude": 51.9026455, "longitude": -8.508403, "rating": 5, "county": "Cork"}, {"name": "Maxol Service Station Skehard Road", "address": "Skehard Rd, Mahon, Cork, T12 HP2C, Ireland", "latitude": 51.8900099, "longitude": -8.4125569, "rating": 4, "county": "Cork"}, {"name": "Maxol Service Station Donnybrook", "address": "Donnybrook Dr, Douglas, Cork, T12 Y583, Ireland", "latitude": 51.8687699, "longitude": -8.4390678, "rating": 4.1, "county": "Cork"}, {"name": "Top Oil Tolisons Service Station", "address": "Old Youghal Rd, Mayfield, Cork, T23 D439, Ireland", "latitude": 51.9111339, "longitude": -8.442453900000002, "rating": 4.5, "county": "Cork"}, {"name": "Maxol Service Station Tivoli", "address": "Lower Glanmire Rd, Lota More, Cork, T23 KDE4, Ireland", "latitude": 51.9031591, "longitude": -8.429423, "rating": 4, "county": "Cork"}, {"name": "Maxol Service Station Boreenmanna Rd", "address": "Boreenmanna Rd, Ballintemple, Cork, T12 K030, Ireland", "latitude": 51.8909343, "longitude": -8.4449503, "rating": 4.1, "county": "Cork"}, {"name": "Texaco", "address": "Blackpool Service Station, 62 Watercourse Rd, Blackpool, Cork, T23 DPA9, Ireland", "latitude": 51.9084992, "longitude": -8.4742404, "rating": 4.4, "county": "Cork"}, {"name": "Texaco", "address": "Bishopstown, Cork, Ireland", "latitude": 51.879509, "longitude": -8.5180171, "rating": 4.1, "county": "Cork"}, {"name": "Top Oil Ballyvolane Service Station", "address": "Ballyhooly Rd, Ballyvolane, Cork, T23 A977, Ireland", "latitude": 51.9139913, "longitude": -8.4477675, "rating": 4.3, "county": "Cork"}, {"name": "Maxol R849", "address": "Togher, Cork, Ireland", "latitude": 51.88372, "longitude": -8.504859999999999, "rating": 4.2, "county": "Cork"}, {"name": "Texaco", "address": "S Douglas Rd, Douglas, Cork, T12 TX93, Ireland", "latitude": 51.8804843, "longitude": -8.4492004, "rating": 4.6, "county": "Cork"}, {"name": "Ard Services - Statoil", "address": "Lower Glanmire Road, Cork, Ireland", "latitude": 51.90309629999999, "longitude": -8.430225900000002, "rating": 4, "county": "Cork"}, {"name": "O'Callaghans Service Station", "address": "R614, Cork, Ireland", "latitude": 51.91393290000001, "longitude": -8.4476538, "rating": 3.2, "county": "Cork"}, {"name": "Texaco", "address": "Carrigrohane Rd, Cork, T12 KV6K, Ireland", "latitude": 51.8932564, "longitude": -8.511309599999999, "rating": 4.2, "county": "Cork"}, {"name": "Circle K Polefield", "address": "New, Old Mallow Rd, Blackpool Shopping Centre, Cork, Ireland", "latitude": 51.9163156, "longitude": -8.474009299999999, "rating": 4.2, "county": "Cork"}, {"name": "Circle K", "address": "Cork Airport, Co. Cork, T12 W5FD, Ireland", "latitude": 51.8482953, "longitude": -8.4809848, "rating": 3.5, "county": "Cork"}, {"name": "Circle K, Rochestown", "address": "Rochestown Rd, Rochestown, Cork, Ireland", "latitude": 51.8771148, "longitude": -8.395981899999999, "rating": 4, "county": "Cork"}, {"name": "Gaslink/Independent System Operators Ireland", "address": "Rockboro Rd, Ballintemple, Cork, Ireland", "latitude": 51.89490079999999, "longitude": -8.461812799999999, "rating": 4, "county": "Cork"}, {"name": "Texaco", "address": "Model Farm Rd, Bishopstown, Cork, Ireland", "latitude": 51.8890039, "longitude": -8.5355217, "rating": 3.9, "county": "Cork"}, {"name": "Top Oil McDonald's Oil", "address": "Unit 3 Kinsale Rd, Ballyphehane, Kinsale, Co. Cork, T12 N449, Ireland", "latitude": 51.8751394, "longitude": -8.4689214, "rating": 4.2, "county": "Cork"}, {"name": "Circle K", "address": "Leitrim St, Blackpool Retail Park, Cork, T23 NC3D, Ireland", "latitude": 51.9037485, "longitude": -8.4721739, "rating": 3.7, "county": "Cork"}, {"name": "Hennessy's Filling Station", "address": "Garraneboy, Cork, Ireland", "latitude": 51.9380415, "longitude": -8.4511035, "rating": 4.3, "county": "Cork"}, {"name": "Applegreen", "address": "Harbour View Rd, Knocknaheeney, Hollyhill, Co. Cork, T23 RP86, Ireland", "latitude": 51.90257889999999, "longitude": -8.5083986, "rating": 4.1, "county": "Cork"}, {"name": "Amber", "address": "Bandon Road, Ardarostig, Cork, Ireland", "latitude": 51.8719445, "longitude": -8.5221304, "rating": 3.8, "county": "Cork"}, {"name": "Inver Mayfield", "address": "Old Youghal Rd, Mayfield, Cork, T23 K2VR, Ireland", "latitude": 51.9156226, "longitude": -8.426974999999999, "rating": 4.1, "county": "Cork"}, {"name": "Hennessys Daybreak", "address": "Whites Cross, Co. Cork, T23 FT54, Ireland", "latitude": 51.9380122, "longitude": -8.4508417, "rating": 4.4, "county": "Cork"}, {"name": "Top Oil Shamrock Service Station", "address": "Garraneboy, White's Cross, Co. Cork, T23 FT54, Ireland", "latitude": 51.93804120000001, "longitude": -8.451006699999999, "rating": 4.1, "county": "Cork"}, {"name": "Costcutter Express & Amber Filling Station", "address": "Old Youghal Rd, Tivoli, Cork, Ireland", "latitude": 51.9155399, "longitude": -8.4271398, "rating": 5, "county": "Cork"}, {"name": "Mace", "address": "O Reillys Service Station, Blackpool, Cork, T23 DPA9, Ireland", "latitude": 51.9084531, "longitude": -8.4742628, "rating": 3.9, "county": "Cork"}, {"name": "Centra Texaco South Douglas Road", "address": "Texaco, S Douglas Rd, Douglas, Cork, T12 TX93, Ireland", "latitude": 51.8805043, "longitude": -8.4492794, "rating": 4.1, "county": "Cork"}, {"name": "AS 24", "address": "Castleview, Co. Cork, Ireland", "latitude": 51.90723209999999, "longitude": -8.3627041, "rating": 0, "county": "Cork"}, {"name": "Circle K", "address": "Castleview, Little Island, Co. Cork, Ireland", "latitude": 51.9037771, "longitude": -8.3518514, "rating": 3.8, "county": "Cork"}, {"name": "Grandons Texaco Centra Glanmire", "address": "Sallybrook Glanmire Cork. Exit 18 M8, Co. Cork, T45 V221, Ireland", "latitude": 51.9405067, "longitude": -8.3972581, "rating": 4, "county": "Cork"}, {"name": "Texaco", "address": "Dunkettle, Glanmire, Co. Cork, Ireland", "latitude": 51.9173706, "longitude": -8.3983733, "rating": 3.8, "county": "Cork"}, {"name": "Certa", "address": "Cork Lee Tunnel Castleview, Co. Cork, Ireland", "latitude": 51.9072787, "longitude": -8.3632511, "rating": 3.8, "county": "Cork"}, {"name": "Applegreen", "address": "Hazelwood Centre, Brooklodge, Glanmire, Co. Cork, T45 K251, Ireland", "latitude": 51.9318072, "longitude": -8.3817244, "rating": 4, "county": "Cork"}, {"name": "Centra", "address": "Topaz Service Station, Main Street, Lota More, Cork, P47 K683, Ireland", "latitude": 51.9031785, "longitude": -8.4284646, "rating": 5, "county": "Cork"}, {"name": "Amber Oil", "address": "Ca, Coolymurraghue, Leemount Cross, Co. Cork, T12 VK12, Ireland", "latitude": 51.8988792, "longitude": -8.5731511, "rating": 4.6, "county": "Cork"}, {"name": "Maxol Service Station Bandon Road", "address": "Bandon Road, Kilmurriheen, Waterfall, Co. Cork, T12 DY7F, Ireland", "latitude": 51.840955, "longitude": -8.5316817, "rating": 4.4, "county": "Cork"}]