[{"name": "Nicholl Auto 365 Service Station", "address": "1 Phillip St, Londonderry BT48 7PN, United Kingdom", "latitude": 55.0112344, "longitude": -7.317068399999999, "rating": 3.1, "county": "Derry"}, {"name": "Coyle Fuels", "address": "Phillip St, Londonderry BT48 7PN, United Kingdom", "latitude": 55.01133309999999, "longitude": -7.3180266, "rating": 4.4, "county": "Derry"}, {"name": "Link Service Station", "address": "180 Creggan Rd, Londonderry BT48 0RX, United Kingdom", "latitude": 55.0118816, "longitude": -7.346886899999999, "rating": 4.2, "county": "Derry"}, {"name": "Go", "address": "Londonderry BT48 8AB, United Kingdom", "latitude": 55.0172975, "longitude": -7.324469799999999, "rating": 0, "county": "Derry"}, {"name": "Auto 24", "address": "Londonderry BT47 6BJ, United Kingdom", "latitude": 54.99499309999999, "longitude": -7.3061035, "rating": 0, "county": "Derry"}, {"name": "Devine Fuels", "address": "93 Marlborough Rd, Londonderry BT48 9BH, United Kingdom", "latitude": 54.9992662, "longitude": -7.335899599999999, "rating": 0, "county": "Derry"}, {"name": "desmonds ford garage", "address": "Strand Rd, Londonderry BT48 7PT, United Kingdom", "latitude": 55.0112959, "longitude": -7.317208699999999, "rating": 4.5, "county": "Derry"}, {"name": "Craig Fuels", "address": "Unit 1 Crescent Link, Londonderry BT47 6SA, United Kingdom", "latitude": 54.98873949999999, "longitude": -7.295428899999999, "rating": 0, "county": "Derry"}, {"name": "Mc Ginleys Spar", "address": "20 Buncrana Rd, Londonderry BT48 8AB, United Kingdom", "latitude": 55.01715850000001, "longitude": -7.3244764, "rating": 4.8, "county": "Derry"}, {"name": "Star", "address": "8 Glenshane Rd, Drumahoe, Londonderry BT47 3SF, United Kingdom", "latitude": 54.9766001, "longitude": -7.267013, "rating": 5, "county": "Derry"}, {"name": "Tesco Petrol Station", "address": "Lisnagelvin Shopping Centre, Lisnagelvin Rd, Londonderry BT47 6DA, United Kingdom", "latitude": 54.9894895, "longitude": -7.293824499999999, "rating": 5, "county": "Derry"}, {"name": "Cpl Fuels", "address": "5 Bay Rd, Londonderry BT48 7SH, United Kingdom", "latitude": 55.01237219999999, "longitude": -7.308057999999999, "rating": 0, "county": "Derry"}, {"name": "Topaz", "address": "Londonderry BT48 8AB, United Kingdom", "latitude": 55.017323, "longitude": -7.324618900000001, "rating": 4.5, "county": "Derry"}, {"name": "Hutcheon Fuels", "address": "74b Blighs Ln, Londonderry BT48, United Kingdom", "latitude": 54.9963279, "longitude": -7.3439478, "rating": 0, "county": "Derry"}, {"name": "Star", "address": "Londonderry BT48 0JP, United Kingdom", "latitude": 55.0116312, "longitude": -7.3465903, "rating": 0, "county": "Derry"}, {"name": "A & N Fuels Ni Ltd", "address": "68 Mullenan Rd, Londonderry BT48 9XW, United Kingdom", "latitude": 54.9612596, "longitude": -7.401633899999999, "rating": 4, "county": "Derry"}, {"name": "Craig Fuels", "address": "Carrakeel Industrial Park, Maydown, Londonderry BT47 6SZ, United Kingdom", "latitude": 55.0423199, "longitude": -7.2410143, "rating": 4.7, "county": "Derry"}, {"name": "Abercorn Service Station", "address": "Londonderry BT48 6SA, United Kingdom", "latitude": 54.9912404, "longitude": -7.3243809, "rating": 4.4, "county": "Derry"}, {"name": "Victoria Court Service Station", "address": "65 Victoria Rd, Newbuildings, Londonderry BT47 2PU, United Kingdom", "latitude": 54.9619872, "longitude": -7.3562498, "rating": 3.8, "county": "Derry"}, {"name": "Cassidy's Filling Station", "address": "205 Tamnaherin Rd, Londonderry BT47 3LY, United Kingdom", "latitude": 54.9771064, "longitude": -7.2088584, "rating": 4.7, "county": "Derry"}, {"name": "Rafferty's Garage", "address": "Rafferty's Maxol, Bunnamayne, Buncrana, Co. Donegal, F93 VPF5, Ireland", "latitude": 55.040737, "longitude": -7.378315400000001, "rating": 4.6, "county": "Derry"}, {"name": "Circle K", "address": "Kilderry Ln, Ardmore, Co. Donegal, Ireland", "latitude": 55.0694117, "longitude": -7.2685119, "rating": 0, "county": "Derry"}, {"name": "Go", "address": "Londonderry BT48 7PE, United Kingdom", "latitude": 55.0079388, "longitude": -7.3196982, "rating": 4.3, "county": "Derry"}, {"name": "Moran's Centra Strand Road", "address": "139 Strand Rd, Londonderry BT48 7PB, United Kingdom", "latitude": 55.0082198, "longitude": -7.319753400000001, "rating": 4, "county": "Derry"}, {"name": "St Johnston Service Station", "address": "Derry Road St.Johnston, R236, Lifford, F93 A6CW, Ireland", "latitude": 54.9345168, "longitude": -7.4584755, "rating": 4.5, "county": "Derry"}, {"name": "Circle K R238", "address": "Main St, Ardmore, Muff, Co. Donegal, Ireland", "latitude": 55.0694842, "longitude": -7.2686233, "rating": 4, "county": "Derry"}, {"name": "Maxol", "address": "Main St, Muff, Co. Donegal, F93 AEY5, Ireland", "latitude": 55.06701049999999, "longitude": -7.269566900000001, "rating": 4.4, "county": "Derry"}, {"name": "Q Fuels", "address": "2 Kee Rd, Eglinton, Campsie, Londonderry BT47 3PT, United Kingdom", "latitude": 55.0347391, "longitude": -7.1808013, "rating": 4.7, "county": "Derry"}, {"name": "Magheramason Service Station", "address": "138 Victoria Rd, Magheramason, Londonderry BT47 2QG, United Kingdom", "latitude": 54.9404437, "longitude": -7.3848939, "rating": 4.2, "county": "Derry"}, {"name": "Donaghys Filling Station", "address": "Main St, Ardmore, Muff, Co. Donegal, Ireland", "latitude": 55.06866669999999, "longitude": -7.268892899999999, "rating": 4.3, "county": "Derry"}, {"name": "Maxol Eglinton", "address": "5 Coolafinny Rd, Eglinton, Londonderry BT47 3PG, United Kingdom", "latitude": 55.0309776, "longitude": -7.184454499999999, "rating": 4.4, "county": "Derry"}, {"name": "Market Express", "address": "3b Church St, Claudy, Londonderry BT47 4AA, United Kingdom", "latitude": 54.9108264, "longitude": -7.1540535, "rating": 0, "county": "Derry"}, {"name": "Kernan's EUROSPAR", "address": "Derry Road, Newtown Cunningham, Co. Donegal, Ireland", "latitude": 54.99832499999999, "longitude": -7.514735999999999, "rating": 4.2, "county": "Derry"}, {"name": "Derrychrier Service Station Feeny Road", "address": "772 Feeny Rd, Dungiven, Londonderry BT47 4TB, United Kingdom", "latitude": 54.9117253, "longitude": -6.9626091, "rating": 4.5, "county": "Derry"}, {"name": "Go Service Station", "address": "Derry Road Street Johnston Lifford, Co. Donegal, Ireland", "latitude": 54.93454699999999, "longitude": -7.4583127, "rating": 1, "county": "Derry"}, {"name": "Texaco Spar Bridgend", "address": "N13, Buncrana Rd, Bridgend, Co. Donegal, Ireland", "latitude": 55.0393463, "longitude": -7.376899099999999, "rating": 4.4, "county": "Derry"}, {"name": "Independent", "address": "Main Street Muff Q, Ireland", "latitude": 55.071749, "longitude": -7.2689605, "rating": 0, "county": "Derry"}, {"name": "O'kane's Filling Station Ltd", "address": "804 Feeny Rd, Dungiven, Londonderry BT47 4TA, United Kingdom", "latitude": 54.9272571, "longitude": -6.9405314, "rating": 0, "county": "Derry"}, {"name": "Applegreen", "address": "Derry Road, Bunnagee, Letterkenny, Co. Donegal, F92 KWX4, Ireland", "latitude": 54.9436575, "longitude": -7.698410600000001, "rating": 4.2, "county": "Derry"}, {"name": "Fast ChP LondonDerry", "address": "9 Glendermott Rd, Londonderry BT47 6BG, United Kingdom", "latitude": 54.994756, "longitude": -7.307203700000001, "rating": 0, "county": "Derry"}]