[{"name": "Nicholl Auto 365 Service Station", "address": "1 Phillip St, Londonderry BT48 7PN, United Kingdom", "latitude": 55.0112344, "longitude": -7.317068399999999, "rating": 3.1}, {"name": "Coyle Fuels", "address": "Phillip St, Londonderry BT48 7PN, United Kingdom", "latitude": 55.01133309999999, "longitude": -7.3180266, "rating": 4.4}, {"name": "Link Service Station", "address": "180 Creggan Rd, Londonderry BT48 0RX, United Kingdom", "latitude": 55.0118816, "longitude": -7.346886899999999, "rating": 4.2}, {"name": "Go", "address": "Londonderry BT48 8AB, United Kingdom", "latitude": 55.0172975, "longitude": -7.324469799999999, "rating": 0}, {"name": "Auto 24", "address": "Londonderry BT47 6BJ, United Kingdom", "latitude": 54.99499309999999, "longitude": -7.3061035, "rating": 0}, {"name": "Devine Fuels", "address": "93 Marlborough Rd, Londonderry BT48 9BH, United Kingdom", "latitude": 54.9992662, "longitude": -7.335899599999999, "rating": 0}, {"name": "desmonds ford garage", "address": "Strand Rd, Londonderry BT48 7PT, United Kingdom", "latitude": 55.0112959, "longitude": -7.317208699999999, "rating": 4.5}, {"name": "Craig Fuels", "address": "Unit 1 Crescent Link, Londonderry BT47 6SA, United Kingdom", "latitude": 54.98873949999999, "longitude": -7.295428899999999, "rating": 0}, {"name": "Mc Ginleys Spar", "address": "20 Buncrana Rd, Londonderry BT48 8AB, United Kingdom", "latitude": 55.01715850000001, "longitude": -7.3244764, "rating": 4.8}, {"name": "Star", "address": "8 Glenshane Rd, Drumahoe, Londonderry BT47 3SF, United Kingdom", "latitude": 54.9766001, "longitude": -7.267013, "rating": 5}, {"name": "Tesco Petrol Station", "address": "Lisnagelvin Shopping Centre, Lisnagelvin Rd, Londonderry BT47 6DA, United Kingdom", "latitude": 54.9894895, "longitude": -7.293824499999999, "rating": 5}, {"name": "Cpl Fuels", "address": "5 Bay Rd, Londonderry BT48 7SH, United Kingdom", "latitude": 55.01237219999999, "longitude": -7.308057999999999, "rating": 0}, {"name": "Topaz", "address": "Londonderry BT48 8AB, United Kingdom", "latitude": 55.017323, "longitude": -7.324618900000001, "rating": 4.5}, {"name": "Hutcheon Fuels", "address": "74b Blighs Ln, Londonderry BT48, United Kingdom", "latitude": 54.9963279, "longitude": -7.3439478, "rating": 0}, {"name": "Star", "address": "Londonderry BT48 0JP, United Kingdom", "latitude": 55.0116312, "longitude": -7.3465903, "rating": 0}, {"name": "A & N Fuels Ni Ltd", "address": "68 Mullenan Rd, Londonderry BT48 9XW, United Kingdom", "latitude": 54.9612596, "longitude": -7.401633899999999, "rating": 4}, {"name": "Craig Fuels", "address": "Carrakeel Industrial Park, Maydown, Londonderry BT47 6SZ, United Kingdom", "latitude": 55.0423199, "longitude": -7.2410143, "rating": 4.7}, {"name": "Abercorn Service Station", "address": "Londonderry BT48 6SA, United Kingdom", "latitude": 54.9912404, "longitude": -7.3243809, "rating": 4.4}, {"name": "Victoria Court Service Station", "address": "65 Victoria Rd, Newbuildings, Londonderry BT47 2PU, United Kingdom", "latitude": 54.9619872, "longitude": -7.3562498, "rating": 3.8}, {"name": "Cassidy's Filling Station", "address": "205 Tamnaherin Rd, Londonderry BT47 3LY, United Kingdom", "latitude": 54.9771064, "longitude": -7.2088584, "rating": 4.7}, {"name": "Rafferty's Garage", "address": "Rafferty's Maxol, Bunnamayne, Buncrana, Co. Donegal, F93 VPF5, Ireland", "latitude": 55.040737, "longitude": -7.378315400000001, "rating": 4.6}, {"name": "Circle K", "address": "Kilderry Ln, Ardmore, Co. Donegal, Ireland", "latitude": 55.0694117, "longitude": -7.2685119, "rating": 0}, {"name": "Go", "address": "Londonderry BT48 7PE, United Kingdom", "latitude": 55.0079388, "longitude": -7.3196982, "rating": 4.3}, {"name": "Moran's Centra Strand Road", "address": "139 Strand Rd, Londonderry BT48 7PB, United Kingdom", "latitude": 55.0082198, "longitude": -7.319753400000001, "rating": 4}, {"name": "St Johnston Service Station", "address": "Derry Road St.Johnston, R236, Lifford, F93 A6CW, Ireland", "latitude": 54.9345168, "longitude": -7.4584755, "rating": 4.5}, {"name": "Maxol Eglinton", "address": "5 Coolafinny Rd, Eglinton, Londonderry BT47 3PG, United Kingdom", "latitude": 55.0309776, "longitude": -7.184454499999999, "rating": 4.4}, {"name": "Circle K R238", "address": "Main St, Ardmore, Muff, Co. Donegal, Ireland", "latitude": 55.0694842, "longitude": -7.2686233, "rating": 4}, {"name": "Maxol", "address": "Main St, Muff, Co. Donegal, F93 AEY5, Ireland", "latitude": 55.06701049999999, "longitude": -7.269566900000001, "rating": 4.4}, {"name": "Q Fuels", "address": "2 Kee Rd, Eglinton, Campsie, Londonderry BT47 3PT, United Kingdom", "latitude": 55.0347391, "longitude": -7.1808013, "rating": 4.7}, {"name": "Derrychrier Service Station Feeny Road", "address": "772 Feeny Rd, Dungiven, Londonderry BT47 4TB, United Kingdom", "latitude": 54.9117253, "longitude": -6.9626091, "rating": 4.5}, {"name": "Magheramason Service Station", "address": "138 Victoria Rd, Magheramason, Londonderry BT47 2QG, United Kingdom", "latitude": 54.9404437, "longitude": -7.3848939, "rating": 4.2}, {"name": "Donaghys Filling Station", "address": "Main St, Ardmore, Muff, Co. Donegal, Ireland", "latitude": 55.06866669999999, "longitude": -7.268892899999999, "rating": 4.3}, {"name": "Market Express", "address": "3b Church St, Claudy, Londonderry BT47 4AA, United Kingdom", "latitude": 54.9108264, "longitude": -7.1540535, "rating": 0}, {"name": "Kernan's EUROSPAR", "address": "Derry Road, Newtown Cunningham, Co. Donegal, Ireland", "latitude": 54.99832499999999, "longitude": -7.514735999999999, "rating": 4.2}, {"name": "Go Service Station", "address": "Derry Road Street Johnston Lifford, Co. Donegal, Ireland", "latitude": 54.93454699999999, "longitude": -7.4583127, "rating": 1}, {"name": "Texaco Spar Bridgend", "address": "N13, Buncrana Rd, Bridgend, Co. Donegal, Ireland", "latitude": 55.0393463, "longitude": -7.376899099999999, "rating": 4.4}, {"name": "Independent", "address": "Main Street Muff Q, Ireland", "latitude": 55.071749, "longitude": -7.2689605, "rating": 0}, {"name": "O'kane's Filling Station Ltd", "address": "804 Feeny Rd, Dungiven, Londonderry BT47 4TA, United Kingdom", "latitude": 54.9272571, "longitude": -6.9405314, "rating": 0}, {"name": "Applegreen", "address": "Derry Road, Bunnagee, Letterkenny, Co. Donegal, F92 KWX4, Ireland", "latitude": 54.9436575, "longitude": -7.698410600000001, "rating": 4.2}, {"name": "Circle K Farrens", "address": "Railway Rd, Ballymacarry Lower, Buncrana, Co. Donegal, Ireland", "latitude": 55.1280487, "longitude": -7.4569189, "rating": 5}, {"name": "Star", "address": "181 Clooney Rd, Greysteel, Londonderry BT47 3DY, United Kingdom", "latitude": 55.0332276, "longitude": -7.113205199999999, "rating": 4.2}, {"name": "Gurney Fuels", "address": "7 Vale Rd, Eglinton, Londonderry BT47 3EE, United Kingdom", "latitude": 55.02245, "longitude": -7.1119695, "rating": 0}, {"name": "Go", "address": "804 Feeny Rd, Dungiven, Londonderry BT47 4PH, United Kingdom", "latitude": 54.92727989999999, "longitude": -6.940402799999999, "rating": 4.3}, {"name": "CASSIDY FUELS", "address": "772 Feeny Rd, Dungiven, Londonderry BT47 4TA, United Kingdom", "latitude": 54.9116695, "longitude": -6.962453500000001, "rating": 5}, {"name": "EUROSPAR Skeoge", "address": "1 Glenabbey Dr, Londonderry BT48 8LX, United Kingdom", "latitude": 55.0373068, "longitude": -7.330462, "rating": 3.8}, {"name": "Top Oil Newtowncunningham Kernan's Service Station", "address": "Derry Road, Colehill, Newtown Cunningham, Co. Donegal, F93 T3PC, Ireland", "latitude": 54.9982272, "longitude": -7.5149927, "rating": 4.5}, {"name": "Rafferty's Maxol", "address": "Buncranna Road Bunnamayne Bridgend, Co. Donegal, F93 VPF5, Ireland", "latitude": 55.040738, "longitude": -7.3781542, "rating": 5}, {"name": "Maxol", "address": "Londonderry BT47 5NW, United Kingdom", "latitude": 54.9939312, "longitude": -7.3028235, "rating": 0}, {"name": "Lagan Fuels", "address": "183 Finvola Park, Dungiven, Londonderry BT47 4SS, United Kingdom", "latitude": 54.9226227, "longitude": -6.9148157, "rating": 5}, {"name": "Grove Service Station", "address": "Bunnamayne, Bridgend, Co. Donegal, Ireland", "latitude": 55.0400913, "longitude": -7.3764216, "rating": 4.3}, {"name": "Maxol Service Station, McGonigle's", "address": "Muff, Co. Donegal, Ireland", "latitude": 55.06699399999999, "longitude": -7.269401299999998, "rating": 4.4}, {"name": "Applegreen", "address": "Ballyederowen, Sligo, Co. Donegal, F93 E4W0, Ireland", "latitude": 55.0573364, "longitude": -7.4043984, "rating": 0}, {"name": "Mcerlean Fuels Ltd", "address": "Ardmore, Annagry East, Co. Donegal, Ireland", "latitude": 55.0715679, "longitude": -7.269193800000001, "rating": 5}, {"name": "AMCO Supplies Ltd / Spar / Circle K", "address": "82 Derry Rd, Omagh BT78 5ED, United Kingdom", "latitude": 54.610682, "longitude": -7.323428400000001, "rating": 4.1}, {"name": "Embankment Service Station", "address": "287 Shore Rd, Belfast BT15 9PW, United Kingdom", "latitude": 54.6295711, "longitude": -5.922296999999999, "rating": 3.2}, {"name": "Ballymagorry Service Station", "address": "442 Victoria Rd, Ballymagorry, Strabane BT82 0AT, United Kingdom", "latitude": 54.85903649999999, "longitude": -7.429705899999999, "rating": 4.3}, {"name": "Applegreen Buncrana", "address": "R238, Luddan, Buncrana, Co. Donegal, Ireland", "latitude": 55.1155383, "longitude": -7.461023099999999, "rating": 4.4}, {"name": "Topaz Service Station, Callaghan's", "address": "Moness, Burt, Co. Donegal, Ireland", "latitude": 55.032107, "longitude": -7.454124699999999, "rating": 4.6}, {"name": "Texaco N14", "address": "Bunnagee, Co. Donegal, Ireland", "latitude": 54.9438968, "longitude": -7.697016599999999, "rating": 3.9}, {"name": "Go", "address": "Legnaduff, Co. Donegal, Ireland", "latitude": 54.978573, "longitude": -7.411953, "rating": 4.3}]