[{"name": "Supermacs Donegal Service Station", "address": "Drumlonagher, Donegal, Ireland", "latitude": 54.6591698, "longitude": -8.0897154, "rating": 4.4}, {"name": "Circle K", "address": "Drumcliff, Donegal, Ireland", "latitude": 54.6564399, "longitude": -8.1183255, "rating": 4.2}, {"name": "Top Oil Donegal Town Koleys Service Station", "address": "N56, Drumlonagher, Donegal, F94 N24R, Ireland", "latitude": 54.6584285, "longitude": -8.0895213, "rating": 4.3}, {"name": "Emo The Northern Garage", "address": "Clar Road, Drumlonagher, Donegal, F94 N8PD, Ireland", "latitude": 54.6560143, "longitude": -8.0962744, "rating": 4.9}, {"name": "Holmes Service Station", "address": "Killybegs Road, Rossylongan, Donegal, Ireland", "latitude": 54.6523871, "longitude": -8.142416599999999, "rating": 4.3}, {"name": "AS 24", "address": "N56 Homes Service Station, Killybegs Road, Co. Donegal, Ireland", "latitude": 54.6524161, "longitude": -8.1423389, "rating": 4.3}, {"name": "Circle K Express", "address": "Laghy, Laghey, Co. Donegal, F94 D329, Ireland", "latitude": 54.61521880000001, "longitude": -8.0897142, "rating": 4.3}]