[{"name": "Maxol Service Station, Downes", "address": "Ballyrea, Co. Wexford, Y25 X6C5, Ireland", "latitude": 52.5375175, "longitude": -6.348122999999999, "rating": 4.4}, {"name": "Drumgoold Service Station", "address": "Drumgoold, Drumgold, Enniscorthy, Co. Wexford, Y21 E5C0, Ireland", "latitude": 52.4970086, "longitude": -6.5501983, "rating": 4.3}, {"name": "Top Oil Tomnalosset Service Station", "address": "L2045, Tomnalossett, Enniscorthy, Co. Wexford, Y21 P7D4, Ireland", "latitude": 52.4809596, "longitude": -6.588677, "rating": 4.4}, {"name": "Emo Oil - Killeen's Mace & Service Station", "address": "New Line Road, Wexford, Ireland", "latitude": 52.3238995, "longitude": -6.4927855, "rating": 3.7}, {"name": "Circle K", "address": "The Quay, Southknock, New Ross, Co. Wexford, Y34 N400, Ireland", "latitude": 52.3916937, "longitude": -6.9495514, "rating": 3.8}, {"name": "Donohoe's Filling Station", "address": "Hempfield, Templeshannon, Enniscorthy, Co. Wexford, Y21 DW01, Ireland", "latitude": 52.50834210000001, "longitude": -6.558422500000001, "rating": 5}, {"name": "Circle K R700", "address": "Quayside, Wexford Road, New Ross, Co. Wexford, Ireland", "latitude": 52.4055109, "longitude": -6.935250399999999, "rating": 4.3}, {"name": "Top Oil Dohertys Service Station", "address": "Lakeside, Eardownes Great, Our lady's Island, Co. Wexford, Y35 WRX8, Ireland", "latitude": 52.21007640000001, "longitude": -6.3801032, "rating": 0}, {"name": "Morgan Fuels Ireland Ltd Rosslare Harbour", "address": "N 25, Newry, Co. Wexford, Ireland", "latitude": 52.247041, "longitude": -6.3450609, "rating": 4.2}, {"name": "Drive Service Station Courtown", "address": "Harbour Ct, Seamount, Courtown, Co. Wexford, Ireland", "latitude": 52.64502969999999, "longitude": -6.230427499999999, "rating": 3.9}, {"name": "AS 24", "address": "N 25, Tml Fuels, Calafort Ros L\u00e1ir, Ireland", "latitude": 52.25086, "longitude": -6.342630000000001, "rating": 3.7}, {"name": "Barndarrig Service Station", "address": "Kilbride, Co. Wicklow, Ireland", "latitude": 52.9132444, "longitude": -6.110393699999999, "rating": 3.7}, {"name": "Applegreen", "address": "M9 Exit 7, Jordanstown, Co. Kilkenny, R95 R2X6, Ireland", "latitude": 52.67995699999999, "longitude": -7.034754299999999, "rating": 4.2}, {"name": "Maxol Service Station Downpatrick", "address": "New Bridge St, Down BT30 6EY, United Kingdom", "latitude": 54.333577, "longitude": -5.716937, "rating": 4}, {"name": "Applegreen", "address": "Main St, Ferns Lower, Ferns, Co. Wexford, Y21 C6F7, Ireland", "latitude": 52.58992749999999, "longitude": -6.4950447, "rating": 4.2}, {"name": "Jio Fuel", "address": "Ballycullane, Co. Wexford, Ireland", "latitude": 52.279526, "longitude": -6.8394849, "rating": 4.8}, {"name": "Texaco Boggans", "address": "Newtown Rd, Carricklawn, Wexford, Y35 CRX7, Ireland", "latitude": 52.3424159, "longitude": -6.4867211, "rating": 4.1}, {"name": "Maxol R741", "address": "Ballyrea, Co. Wexford, Ireland", "latitude": 52.53750909999999, "longitude": -6.3481298, "rating": 3.8}, {"name": "Circle K", "address": "Manor St, Waterford, Ireland", "latitude": 52.25354, "longitude": -7.114725, "rating": 3}, {"name": "Drive service station Quarrypark", "address": "Quarry Park, Blackstoops, Enniscorthy, Co. Wexford, Y21 R6Y3, Ireland", "latitude": 52.5125733, "longitude": -6.5668524, "rating": 4.3}, {"name": "Applegreen", "address": "Newtown Rd, Ballyboggan, Wexford, Y35 D7XW, Ireland", "latitude": 52.3407456, "longitude": -6.502274099999999, "rating": 4.3}, {"name": "Emo Rockmount Service Station", "address": "32 Rathfriland Rd, Newry BT34 1JZ, United Kingdom", "latitude": 54.1854605, "longitude": -6.3227718, "rating": 3.8}, {"name": "Topaz Filling Station", "address": "112D Market St, Downpatrick BT30 6LZ, United Kingdom", "latitude": 54.3250322, "longitude": -5.7193195, "rating": 4.5}, {"name": "Texaco N80", "address": "Ballinapark, Co. Wexford, Ireland", "latitude": 52.65104299999999, "longitude": -6.6485319, "rating": 4.4}, {"name": "Applegreen", "address": "Dunganstown, Corduff, Co. Dublin, K45 X395, Ireland", "latitude": 53.52474729999999, "longitude": -6.1897864, "rating": 4.2}, {"name": "Top Fueling Ireland & Spar", "address": "Ladytown, naas, Co. Kildare, Ireland", "latitude": 53.20748400000001, "longitude": -6.7421283, "rating": 3.9}, {"name": "Maxol Service Station Saintfield", "address": "11 Crossgar Rd, Saintfield, Ballynahinch BT24 7AS, United Kingdom", "latitude": 54.45986000000001, "longitude": -5.830757999999999, "rating": 3.9}, {"name": "Top Oil Geelan's Filling Station", "address": "R733, Waddingtown, Cleariestown, Co. Wexford, Y35 W30E, Ireland", "latitude": 52.2844944, "longitude": -6.6337875, "rating": 4.6}, {"name": "Top Oil Ballyrafter Service Station", "address": "N 72 Lyre, Lismore, P51 VHW1, Ireland", "latitude": 52.14328279999999, "longitude": -7.929092799999999, "rating": 4.4}, {"name": "Applegreen", "address": "Ryland Wood, Ballinapark, Bunclody, Co. Wexford, Y21 Y6V6, Ireland", "latitude": 52.654653, "longitude": -6.649903, "rating": 4.2}, {"name": "Monksland Service Station", "address": "Old Galway Rd, Monksland, Athlone, Co. Westmeath, Ireland", "latitude": 53.42139239999999, "longitude": -7.973829599999999, "rating": 4.4}, {"name": "Applegreen", "address": "Knocknageragh, Kinsalebeg, Co. Cork, P36 X566, Ireland", "latitude": 51.97439989999999, "longitude": -7.8012919, "rating": 4.4}, {"name": "Campus", "address": "Carrickduff, Co. Carlow, N80, bunlacody, Ireland", "latitude": 52.65691529999999, "longitude": -6.6630512, "rating": 4.3}, {"name": "Maxol Service Station Dooradoyle", "address": "St Nessan's Rd, Dooradoyle, Limerick, V94 FF6F, Ireland", "latitude": 52.6330269, "longitude": -8.6564541, "rating": 4.2}, {"name": "Wrong Fuel NI", "address": "88 Church Rd, Randalstown, Antrim BT41 3JW, United Kingdom", "latitude": 54.74906069999999, "longitude": -6.355166499999999, "rating": 5}, {"name": "Maxol Service Station Ballyholme", "address": "2 Ballyholme Rd, Bangor BT20 5JJ, United Kingdom", "latitude": 54.6633, "longitude": -5.66067, "rating": 3.7}, {"name": "Top Fueling Ireland", "address": "Drumman, Co. Cavan, Ireland", "latitude": 54.0696121, "longitude": -7.0925956, "rating": 0}, {"name": "Embankment Service Station", "address": "287 Shore Rd, Belfast BT15 9PW, United Kingdom", "latitude": 54.6295711, "longitude": -5.922296999999999, "rating": 3.2}, {"name": "Top Oil Abbeyside Service Station", "address": "Sexton St, Abbeyside, Dungarvan, Co. Waterford, X35 A782, Ireland", "latitude": 52.0931776, "longitude": -7.613841300000001, "rating": 4.4}, {"name": "Applegreen", "address": "Cullenmore, Co. Wicklow, A67 WR12, Ireland", "latitude": 53.0442788, "longitude": -6.0904133, "rating": 4.1}, {"name": "Emo Oil Daly's Service Station", "address": "N81, Knockroe, Hollywood, Co. Wicklow, Ireland", "latitude": 53.0913118, "longitude": -6.6059829, "rating": 4.3}, {"name": "McSorley's Centra", "address": "Lyre, Co. Wexford, Ireland", "latitude": 52.5139212, "longitude": -6.593554699999999, "rating": 4}, {"name": "Campus Oil New Ross", "address": "R733, Marshmeadows, New Ross, Co. Wexford, Ireland", "latitude": 52.3827583, "longitude": -6.955303499999999, "rating": 4.3}, {"name": "AS 24", "address": "Top Oil, M1, Baile an R\u00e1tha, D\u00fan Dealgan, Co. Contae L\u00fa, Ireland", "latitude": 53.92327359999999, "longitude": -6.4125928, "rating": 4}, {"name": "Roches' Petrol Station", "address": "Main St, Feagarrid, Logleagh, Co. Waterford, Ireland", "latitude": 52.1828334, "longitude": -7.986804, "rating": 0}, {"name": "Easy Fuels Barndarrig", "address": "Ballinacor East, Co. Wicklow, Ireland", "latitude": 52.9138427, "longitude": -6.110805099999999, "rating": 4.1}, {"name": "AS 24", "address": "Ballymascanlan Service Station, Ballymascanian Ballymac, D\u00fan Dealgan, Ireland", "latitude": 54.03438269999999, "longitude": -6.3740483, "rating": 0}, {"name": "Maxol Service Station Dolphins Barn", "address": "16 Crumlin Rd, Drimnagh, Dolphins Barn, Co. Dublin, D12 K44W, Ireland", "latitude": 53.3319841, "longitude": -6.294397, "rating": 3.9}, {"name": "Emo Oil - Donaghcloney Service Station", "address": "Main St, Donaghcloney, Craigavon BT66 7LR, United Kingdom", "latitude": 54.4199964, "longitude": -6.260460000000001, "rating": 4.3}, {"name": "Strangford Filling Station", "address": "50 Portaferry Rd, Newtownards BT23 8SQ, United Kingdom", "latitude": 54.5814294, "longitude": -5.6753017, "rating": 4.6}, {"name": "North Bridge Service Station", "address": "Kilmallock, Co. Limerick, Ireland", "latitude": 52.407175, "longitude": -8.57875, "rating": 4.2}, {"name": "Top Oil Pickardstown", "address": "Waterford Rd, Ballinattin, Tramore, Co. Waterford, X91 C91V, Ireland", "latitude": 52.1756734, "longitude": -7.1380238, "rating": 4.4}, {"name": "Circle K", "address": "Maganey Lower, Maganey, Co. Kildare, Ireland", "latitude": 52.9086466, "longitude": -6.9327224, "rating": 4.7}, {"name": "Adare Service Station", "address": "8 Rathkeale Rd, Blackabbey, Adare, Co. Limerick, V94 RXA8, Ireland", "latitude": 52.5621124, "longitude": -8.7934137, "rating": 4.2}, {"name": "Meadowside", "address": "25 Church St, Downpatrick BT30 6EH, United Kingdom", "latitude": 54.3305261, "longitude": -5.715197700000001, "rating": 4.5}, {"name": "Cullen's Gala Service Station", "address": "R735, Adamstown, Enniscorthy, Co. Wexford, Y21 W8P9, Ireland", "latitude": 52.3932888, "longitude": -6.7191792, "rating": 4.4}, {"name": "Silverstream Service Station Ltd", "address": "Silverstream, Co. Monaghan, Ireland", "latitude": 54.2700596, "longitude": -6.8739728, "rating": 4.4}, {"name": "Applegreen", "address": "Baldrumman, Lusk, Co. Dublin, K45 KD89, Ireland", "latitude": 53.5371791, "longitude": -6.215010599999999, "rating": 4.2}, {"name": "Campus Main Street", "address": "Poulmarl, Co. Wexford, Ireland", "latitude": 52.3225, "longitude": -6.65314, "rating": 4.6}, {"name": "Campus Service Station", "address": "Ballyragget, Co. Kilkenny, Ireland", "latitude": 52.7885, "longitude": -7.33289, "rating": 4.3}]