[{"name": "McCorrys 24 hour fuel", "address": "Macken Post Office, Crocknacreevy, Enniskillen BT92 3BP, United Kingdom", "latitude": 54.243375, "longitude": -7.623653399999998, "rating": 5}, {"name": "Garvary Station", "address": "193 Tempo Rd, Enniskillen BT74 4QR, United Kingdom", "latitude": 54.3587986, "longitude": -7.577182399999999, "rating": 4.7}, {"name": "Crossroads Fuels Ltd", "address": "383 Lisnaskea Road, Derrylin, Enniskillen BT92 9GB, United Kingdom", "latitude": 54.1900042, "longitude": -7.5625772, "rating": 5}, {"name": "Emo - Glenwood Filling Station", "address": "1 Mossfield Rd, Irvinestown, Enniskillen BT94 1GG, United Kingdom", "latitude": 54.4666082, "longitude": -7.625894299999999, "rating": 4.4}, {"name": "Erneside Autofill", "address": "77 Dublin Rd, Enniskillen BT74 6HN, United Kingdom", "latitude": 54.3403989, "longitude": -7.626173799999999, "rating": 0}, {"name": "Circle K", "address": "226 Irvinestown Rd, Trory, Enniskillen BT94 2LA, United Kingdom", "latitude": 54.3856082, "longitude": -7.639177999999999, "rating": 4.2}, {"name": "Palm Bush Filling Station", "address": "A35, Enniskillen BT93 1QX, United Kingdom", "latitude": 54.533899, "longitude": -7.728636900000001, "rating": 4.4}, {"name": "Texaco", "address": "81 Main Street, Enniskillen BT94 3LW, United Kingdom", "latitude": 54.3787368, "longitude": -7.459295999999999, "rating": 4.5}, {"name": "Killyvilly Petrol Station", "address": "14 Killyvilly, Enniskillen BT74 4DS, United Kingdom", "latitude": 54.3542329, "longitude": -7.5963362, "rating": 5}, {"name": "Topaz (Courtney's)", "address": "Moorlough Rd, Lisnaskea, Enniskillen BT92 0DW, United Kingdom", "latitude": 54.2444892, "longitude": -7.435989800000001, "rating": 4.2}, {"name": "Top Oil", "address": "5 Rossorry Church Rd, Enniskillen BT74 7HB, United Kingdom", "latitude": 54.3472835, "longitude": -7.652540500000001, "rating": 0}, {"name": "Maxol", "address": "24 Dromore Rd, Irvinestown, Enniskillen BT94 1GZ, United Kingdom", "latitude": 54.4750504, "longitude": -7.623494999999999, "rating": 0}, {"name": "Castle Archdale Service Station", "address": "371 KIlladeas Road, Lisnarick, Enniskillen BT94 1PN, United Kingdom", "latitude": 54.4742067, "longitude": -7.701240599999999, "rating": 4.6}, {"name": "POB Fuels", "address": "203 Cavan Road, Newtownbutler, Enniskillen BT92 8FB, United Kingdom", "latitude": 54.1181458, "longitude": -7.3466874, "rating": 5}, {"name": "Scaffog Service Station", "address": "149 Sligo Rd, Enniskillen BT74 7JY, United Kingdom", "latitude": 54.3335331, "longitude": -7.663536499999999, "rating": 4.3}, {"name": "Mcpartlan Fuels belleek", "address": "3FY,, R920, Belleek, Enniskillen, United Kingdom", "latitude": 54.47683929999999, "longitude": -8.0957517, "rating": 4.6}, {"name": "McBride's Maxol Service Station", "address": "Queen St, Enniskillen BT74 7JR, United Kingdom", "latitude": 54.3481373, "longitude": -7.643855800000001, "rating": 4.2}, {"name": "Lilley's Centra & Texaco Station", "address": "27 Lough Shore Rd, Enniskillen BT74 5NH, United Kingdom", "latitude": 54.35365789999999, "longitude": -7.661028000000001, "rating": 4.5}, {"name": "Lilleys Filling Station", "address": "77 Dublin Rd, Enniskillen BT74 6HN, United Kingdom", "latitude": 54.34025219999999, "longitude": -7.626318599999999, "rating": 0}, {"name": "Trory Service Station", "address": "236 Irvinestown Rd, Trory, Enniskillen BT74 6DN, United Kingdom", "latitude": 54.3855668, "longitude": -7.6392897, "rating": 5}, {"name": "Drumharvey Service Station", "address": "16 Scallen Rd, Irvinestown, Enniskillen BT94 1EQ, United Kingdom", "latitude": 54.4751056, "longitude": -7.623536700000001, "rating": 4.7}, {"name": "George at Asda", "address": "8 Derrychara Dr, Enniskillen BT74 6JF, United Kingdom", "latitude": 54.341283, "longitude": -7.6311788, "rating": 4.3}, {"name": "Nicholl Auto 365", "address": "99 Irvinestown Rd, Drumcoo, Enniskillen BT74 6NZ, United Kingdom", "latitude": 54.3594228, "longitude": -7.6322082, "rating": 0}, {"name": "Cassidys Filling Station", "address": "Gortawee, Co. Cavan, Ireland", "latitude": 54.1326863, "longitude": -7.571127, "rating": 4.6}, {"name": "Asda Petrol", "address": "8 Derrychara Link, Enniskillen BT74 6JG, United Kingdom", "latitude": 54.34136489999999, "longitude": -7.631120799999999, "rating": 4.4}, {"name": "T J Hughes Service Station", "address": "Corry, Enniskillen, BT93 3PR, Ireland", "latitude": 54.47721869999999, "longitude": -8.096954700000001, "rating": 4.5}, {"name": "mcm suppliers", "address": "Cassidys, Enniskillen BT92 3DD, United Kingdom", "latitude": 54.2390877, "longitude": -7.699978799999999, "rating": 4.8}, {"name": "Frazer One Stop Shop Ltd", "address": "Delivery Office, 41 Main St, Maguiresbridge, Enniskillen BT94 4RZ, United Kingdom", "latitude": 54.2963397, "longitude": -7.4667751, "rating": 3.5}, {"name": "Lilley's Centra & Texaco Service Station Dublin Rd Enniskillen", "address": "77 Dublin Rd, Enniskillen BT74 6HN, United Kingdom", "latitude": 54.3402781, "longitude": -7.626331500000001, "rating": 3.6}, {"name": "STATOIL Station Ballyconnell", "address": "Derrylin Road, Gortawee, Ballyconnell, Co. Cavan, Ireland", "latitude": 54.1326705, "longitude": -7.5714207, "rating": 0}, {"name": "Beatty Fuels & Farm Supplies", "address": "231A Main St, Lisnaskea, Enniskillen BT92 0JG, United Kingdom", "latitude": 54.2494817, "longitude": -7.441836599999999, "rating": 4}, {"name": "Solo A509", "address": "179 Derrylin Rd, Bellanaleck, Enniskillen BT92 2BA, United Kingdom", "latitude": 54.2960776, "longitude": -7.641491799999999, "rating": 4.3}, {"name": "Smith's Service Station", "address": "R205, Rakeelan, Ballyconnell, Co. Cavan, H14 PV38, Ireland", "latitude": 54.12519229999999, "longitude": -7.573981, "rating": 4.5}, {"name": "Lakeland Fuels", "address": "Killyhevlin Industrial Estate, Killyhevlin, Enniskillen BT74 4EJ, United Kingdom", "latitude": 54.3326942, "longitude": -7.6176949, "rating": 4.5}, {"name": "Corry Fuel & Hardware", "address": "717 Lough Shore Rd, Enniskillen BT93 3DE, United Kingdom", "latitude": 54.4756991, "longitude": -8.0928126, "rating": 4.9}, {"name": "Top Oil Ballyconnell Service Station", "address": "Center, Realta Shopping Centre, Cullyleenan, Ballyconnell, Co. Cavan, H14 XH64, Ireland", "latitude": 54.1153485, "longitude": -7.582856, "rating": 5}, {"name": "CB Fuels", "address": "81 Enniskillen Rd, Ballinamallard, Enniskillen BT94 2GW, United Kingdom", "latitude": 54.4157952, "longitude": -7.601177499999999, "rating": 4.9}, {"name": "Roulstons Foodstore", "address": "236 Irvinestown Rd, Enniskillen BT74 6DN, United Kingdom", "latitude": 54.3855668, "longitude": -7.6392897, "rating": 3.7}, {"name": "Today's Fuel Stop", "address": "Cooneen Rd, Fivemiletown BT75 0ND, United Kingdom", "latitude": 54.3772809, "longitude": -7.316571199999998, "rating": 0}, {"name": "Star", "address": "Enniskillen BT92 3DD, United Kingdom", "latitude": 54.2391596, "longitude": -7.699899899999999, "rating": 0}, {"name": "Top", "address": "Main St, Fivemiletown BT75 0PW, United Kingdom", "latitude": 54.3784583, "longitude": -7.3134056, "rating": 0}, {"name": "Valley Service Station", "address": "40 Colebrook Rd, Fivemiletown BT75 0QG, United Kingdom", "latitude": 54.37569509999999, "longitude": -7.3217019, "rating": 5}, {"name": "Budget Fuels", "address": "53 Effernan Rd, Trillick, Omagh BT78 3SG, United Kingdom", "latitude": 54.4354628, "longitude": -7.4981037, "rating": 0}, {"name": "Clabby Service Station", "address": "124 Clabby Rd, Clabby, Fivemiletown BT75 0QY, United Kingdom", "latitude": 54.398871, "longitude": -7.367291000000001, "rating": 4.4}, {"name": "Go Petrol Station", "address": "Tuam, Blacklion, Co. Cavan, Ireland", "latitude": 54.2916785, "longitude": -7.878830400000001, "rating": 4.3}, {"name": "Arrow Petrol 24hr Filling Station", "address": "Co .Tyrone, 68 Main St, Trillick, Omagh BT78 3SX, United Kingdom", "latitude": 54.4503107, "longitude": -7.489671899999999, "rating": 4.9}, {"name": "Top Oil Spa Service Station", "address": "Main St, Drumconra, Swanlinbar, Co. Cavan, H14 RY29, Ireland", "latitude": 54.194912, "longitude": -7.7039036, "rating": 4.4}, {"name": "SPAR Lisnarick", "address": "371 Killadeas Rd, Lisnarick, Enniskillen BT94 1PN, United Kingdom", "latitude": 54.4742334, "longitude": -7.701040399999998, "rating": 5}, {"name": "Topaz", "address": "Lough Shore Rd, Cloghore, Ballyshannon, Co. Q, Ireland", "latitude": 54.4771053, "longitude": -8.096813800000001, "rating": 0}, {"name": "Country Store", "address": "Corraleskin, Kiltyclogher, Co. Leitrim, Ireland", "latitude": 54.3563901, "longitude": -8.0381421, "rating": 4.5}, {"name": "Circle k", "address": "Letterbreen, Enniskillen BT74 9AY, United Kingdom", "latitude": 54.3091026, "longitude": -7.733632099999999, "rating": 1}, {"name": "Garages In Trillick", "address": "3SX, 14 Main St, Trillick, Omagh BT78 3SU, United Kingdom", "latitude": 54.4517038, "longitude": -7.487133099999999, "rating": 3}, {"name": "SPAR Ballinamallard", "address": "49 Main St, Ballinamallard, Enniskillen BT94 2FY, United Kingdom", "latitude": 54.4233753, "longitude": -7.5932556, "rating": 4.4}, {"name": "Jennings Fuels & Lubricants Ltd.", "address": "48 Drumwhinny Rd, Kesh, Enniskillen BT93 1TB, United Kingdom", "latitude": 54.5165875, "longitude": -7.716022799999999, "rating": 4.7}, {"name": "T.J. Hughes", "address": "Corry, Enniskillen, BT93 3PR, Ireland", "latitude": 54.4769391, "longitude": -8.0965516, "rating": 5}, {"name": "SPAR Derrygonnelly", "address": "48 Rosnarick Cl, Derrygonnelly, Enniskillen BT93 6JX, United Kingdom", "latitude": 54.4165629, "longitude": -7.814295, "rating": 4.8}, {"name": "Texaco Abbey Garage", "address": "Bachelor's Walk, Townparks, Ballyshannon, Co. Donegal, F94 DX6P, Ireland", "latitude": 54.5042333, "longitude": -8.1918527, "rating": 4.7}, {"name": "Clogher Service Station", "address": "Augher Rd, Clogher BT76 0AD, United Kingdom", "latitude": 54.4144097, "longitude": -7.1648656, "rating": 4.5}, {"name": "Top Oil Belturbet Erne Hill Service Station", "address": "R197, Centra, Erne Hill, Co. Cavan, H14 YR96, Ireland", "latitude": 54.0987835, "longitude": -7.431245700000001, "rating": 4.3}, {"name": "Top Oil Kilconny Service Station", "address": "R197, Kilconny, Belturbet, Co. Cavan, H14 YT98, Ireland", "latitude": 54.1016011, "longitude": -7.450852200000001, "rating": 4.3}]