[{"name": "Circle K", "address": "College Rd, Galway, H91 E3TW, Ireland", "latitude": 53.28143559999999, "longitude": -9.0347548, "rating": 3.8, "county": "Galway"}, {"name": "Circle K", "address": "Bohermore, Galway, H91 PR80, Ireland", "latitude": 53.2821319, "longitude": -9.038645899999999, "rating": 4.1, "county": "Galway"}, {"name": "Circle K", "address": "Newcastle Rd, Galway, H91 YKF3, Ireland", "latitude": 53.2817693, "longitude": -9.0648149, "rating": 3.8, "county": "Galway"}, {"name": "Top Oil Knocknacarra Filling Station", "address": "R336 1 Kilkerran Park, Lisoban Industrial Estate, Knocknacarra Rd, Galway, H91 D280, Ireland", "latitude": 53.2585231, "longitude": -9.1032475, "rating": 4.8, "county": "Galway"}, {"name": "Top Oil Tuam Road Service Station", "address": "Tuam Rd, Galway, H91 EPC0, Ireland", "latitude": 53.2901406, "longitude": -9.020806199999999, "rating": 4.1, "county": "Galway"}, {"name": "Circle K", "address": "Ballybrit Service Station, Ballybrit, Galway, H91 TY4X, Ireland", "latitude": 53.2900564, "longitude": -9.0066913, "rating": 4.2, "county": "Galway"}, {"name": "Circle K", "address": "72 Seamus Quirke Rd, Galway, H91 K76D, Ireland", "latitude": 53.27729309999999, "longitude": -9.0720885, "rating": 5, "county": "Galway"}, {"name": "Topaz (Monaghan's)", "address": "Tuam Rd, Galway, Ireland", "latitude": 53.2921421, "longitude": -9.0189085, "rating": 4.2, "county": "Galway"}, {"name": "Texaco Service Station", "address": "Barna Rd, Galway, Ireland", "latitude": 53.259002, "longitude": -9.129656299999999, "rating": 4.1, "county": "Galway"}, {"name": "Maxol Auto24 Westside", "address": "Westside Shopping Centre, Westside, Galway, H91 F6CW, Ireland", "latitude": 53.2756047, "longitude": -9.0767279, "rating": 3.8, "county": "Galway"}, {"name": "Texaco", "address": "Lough Atalia Rd, Galway, Ireland", "latitude": 53.2714607, "longitude": -9.0452719, "rating": 3.8, "county": "Galway"}, {"name": "Topaz Arch", "address": "Seamus Quirke Rd, Westside, Galway, H91 K76D, Ireland", "latitude": 53.2772855, "longitude": -9.072080699999999, "rating": 4.2, "county": "Galway"}, {"name": "Sweeney Oil", "address": "Headford Point, Headford Rd, Galway, H91 W8XV, Ireland", "latitude": 53.2858352, "longitude": -9.0451641, "rating": 4, "county": "Galway"}, {"name": "Texaco xl", "address": "101 Lower Salthill, Galway, Ireland", "latitude": 53.2633164, "longitude": -9.0720122, "rating": 4, "county": "Galway"}, {"name": "Topaz Silverstrand", "address": "Barna Rd, Galway, Ireland", "latitude": 53.259002, "longitude": -9.1296562, "rating": 0, "county": "Galway"}, {"name": "Inver Petrol Station", "address": "Salthill, Co. Galway, H91 N8CY, Ireland", "latitude": 53.2583894, "longitude": -9.1010744, "rating": 4.3, "county": "Galway"}, {"name": "Applegreen", "address": "Tuam Rd, Galway, H91 VY72, Ireland", "latitude": 53.2868412, "longitude": -9.0304403, "rating": 4.2, "county": "Galway"}, {"name": "Top Oil Galway Depot", "address": "Unit 4 Tuam Rd, Tuam, Co. Galway, H91 EPC0, Ireland", "latitude": 53.28912769999999, "longitude": -9.0270446, "rating": 4.6, "county": "Galway"}, {"name": "Maxol Service Station Whitestrand", "address": "Whitestrand, Lower, Salthill, Co. Galway, H91 P46X, Ireland", "latitude": 53.2673445, "longitude": -9.0664772, "rating": 4.2, "county": "Galway"}, {"name": "Circle K Express Tuam Road", "address": "Tuam Rd, Monaghan, Co. Galway, H91 ENY3, Ireland", "latitude": 53.29209909999999, "longitude": -9.018942899999999, "rating": 3.8, "county": "Galway"}, {"name": "Centra Ballybrit", "address": "Ballybrit Service Station, Ballybrit, Galway, H91 TY4X, Ireland", "latitude": 53.290066, "longitude": -9.006730100000002, "rating": 3.3, "county": "Galway"}, {"name": "Emo Oil - N84 Fuels", "address": "N84, Ballindooley, Co. Galway, Ireland", "latitude": 53.310652, "longitude": -9.025932, "rating": 3.3, "county": "Galway"}, {"name": "Top Oil Carnmore Service Station", "address": "R339, Glennascaul, Carnmore Cross, Co. Galway, H91 HHE4, Ireland", "latitude": 53.3048939, "longitude": -8.930759199999999, "rating": 4.3, "county": "Galway"}, {"name": "Centra Arch Motors", "address": "Seamus Quirke Rd, Westside, Galway, H91 K76D, Ireland", "latitude": 53.2773169, "longitude": -9.0720565, "rating": 4.7, "county": "Galway"}, {"name": "Topaz Glynn's / Circle K", "address": "Carnmore, Co. Galway, Ireland", "latitude": 53.3037577, "longitude": -8.9422219, "rating": 4.5, "county": "Galway"}, {"name": "Sweeney Oil", "address": "Purcell House, Claregalway Road, Carrowmoneash, Oranmore, Co. Galway, Ireland", "latitude": 53.28114249999999, "longitude": -8.9262476, "rating": 4.2, "county": "Galway"}, {"name": "Emo", "address": "Garraun Upper, Co. Galway, Ireland", "latitude": 53.23186, "longitude": -8.95005, "rating": 4, "county": "Galway"}, {"name": "Centra Tuam Road", "address": "Petrol Filling Station, Tuam Rd, Galway, H91 H9DK, Ireland", "latitude": 53.2921583, "longitude": -9.019209799999999, "rating": 3.3, "county": "Galway"}, {"name": "Top Oil Furbo Service Station", "address": "Stripe, Furbogh, Co. Galway, H91 H6DR, Ireland", "latitude": 53.24922249999999, "longitude": -9.2098908, "rating": 4.1, "county": "Galway"}, {"name": "Texaco", "address": "Main St, Innplot, Oranmore, Co. Galway, H91 D8KC, Ireland", "latitude": 53.26805400000001, "longitude": -8.929700799999999, "rating": 4.1, "county": "Galway"}, {"name": "Esso N18", "address": "Carrowmoneash, Co. Galway, Ireland", "latitude": 53.28107, "longitude": -8.92593, "rating": 4.4, "county": "Galway"}, {"name": "Certa", "address": "Lakeview, Claregalway, Co. Galway, Ireland", "latitude": 53.34155759999999, "longitude": -8.945259, "rating": 3.9, "county": "Galway"}, {"name": "Texaco", "address": "Headford Road, Park, Cloonboo, Co. Galway, Ireland", "latitude": 53.3742934, "longitude": -9.0164635, "rating": 4.4, "county": "Galway"}, {"name": "Top Oil Oranmore", "address": "Deerpark, Carrowmoneash, Oranmore, Co. Galway, H91 KP78, Ireland", "latitude": 53.2809686, "longitude": -8.9219524, "rating": 5, "county": "Galway"}, {"name": "Top Oil Moycullen Service Station", "address": "Galway Road, Ballycuirke West, Moycullen, Co. Galway, H91 HH5R, Ireland", "latitude": 53.3355434, "longitude": -9.176967, "rating": 4.2, "county": "Galway"}, {"name": "Centra Carnmore", "address": "Glynns Service Station, Carnmore, Galway, H91 W9KH, Ireland", "latitude": 53.303668, "longitude": -8.942148, "rating": 4.4, "county": "Galway"}, {"name": "Derrydonnell Filling Station", "address": "Derrydonnell Beg, Derrydonnell, Co. Galway, Ireland", "latitude": 53.2758102, "longitude": -8.8565405, "rating": 4.5, "county": "Galway"}, {"name": "Circle K", "address": "Killeely More, Kilcolgan, Co. Galway, H91 VP1H, Ireland", "latitude": 53.20869820000001, "longitude": -8.8686064, "rating": 1.7, "county": "Galway"}]