[{"name": "Killarney Fuel Station", "address": "Woodlands Ind. Estate, Deros Coache, Park, Killernay, Co. Kerry, Ireland", "latitude": 52.0629773, "longitude": -9.4843836, "rating": 3.4}, {"name": "Maxol Sheehan's Muckross Road", "address": "Muckross Rd, Killarney, Co. Kerry, Ireland", "latitude": 52.0532929, "longitude": -9.507049400000001, "rating": 4.7}, {"name": "Dennehys Service Station & Spar", "address": "Castlemaine Road, Skehanagh, Tralee, Co. Kerry, Ireland", "latitude": 52.2579231, "longitude": -9.690114, "rating": 4}, {"name": "Circle K", "address": "Spunkane, Co. Kerry, Ireland", "latitude": 51.85017509999999, "longitude": -10.1711706, "rating": 4.6}, {"name": "O'Keeffes Service Station & XL Stop n Shop", "address": "West End, Rathmore, Co. Kerry, Ireland", "latitude": 52.0843687, "longitude": -9.2207169, "rating": 4.5}, {"name": "Buckleys Swift Petrol Station", "address": "R551 E End, Dromin, Ballybunion, Co. Kerry, V31 TR26, Ireland", "latitude": 52.509332, "longitude": -9.6659673, "rating": 4.4}, {"name": "Reeks Filling Station", "address": "Tralee Road, N22, Ardnamweely, Killarney, V93 TRF9, Ireland", "latitude": 52.0683891, "longitude": -9.5164002, "rating": 0}, {"name": "Hegarty's Killarney", "address": "Muckross Rd, Castlelough, Killarney, Co. Kerry, V93 TH28, Ireland", "latitude": 52.0418179, "longitude": -9.4973657, "rating": 4.1}, {"name": "Dci Station 24 Hour", "address": "Park, Co. Kerry, Ireland", "latitude": 52.062751, "longitude": -9.4834128, "rating": 3}, {"name": "Top Oil Camp Service Station", "address": "N 86, Kilgobbin, Upper Camp, Co. Kerry, V92 H32P, Ireland", "latitude": 52.2208315, "longitude": -9.9076933, "rating": 4.3}, {"name": "Circle K", "address": "Quill St, Cloon More, Tralee, Co. Kerry, Ireland", "latitude": 52.2690352, "longitude": -9.687383299999999, "rating": 4.4}, {"name": "Top Oil Glenflesk Service Station", "address": "N 22, Rusheen More, Glenflesk, Co. Kerry, V93 A26D, Ireland", "latitude": 52.012528, "longitude": -9.361529599999999, "rating": 4.3}, {"name": "Inver", "address": "Castlemaine Rd, Ballymullen, Tralee, Co. Kerry, V92 D8HD, Ireland", "latitude": 52.2584226, "longitude": -9.690056499999999, "rating": 4.4}, {"name": "Estuary Gas Station", "address": "Ring of Kerry, Boola, Co. Kerry, Ireland", "latitude": 51.9102131, "longitude": -10.232691, "rating": 4.5}, {"name": "Applegreen", "address": "Top Service Station, Muckross Rd, Dromhale, Killarney, Co. Kerry, Ireland", "latitude": 52.0527294, "longitude": -9.5066296, "rating": 5}, {"name": "Certa", "address": "Deerpark Cl, Ardshanavooly, Killarney, Co. Kerry, V93 HE28, Ireland", "latitude": 52.0622662, "longitude": -9.49406, "rating": 4.5}, {"name": "Circle K", "address": "Dromneavane, Kenmare, Co. Kerry, Ireland", "latitude": 51.88385539999999, "longitude": -9.5892847, "rating": 4}, {"name": "O'Donoghue Fuels", "address": "Kilquane, Killarney Road, Co. Kerry, Ireland", "latitude": 52.06010389999999, "longitude": -9.3375104, "rating": 0}, {"name": "Hickey's Centra Service Station", "address": "Shinnagh, Shinnagh Cross, Co. Kerry, P51 KP9C, Ireland", "latitude": 52.08386669999999, "longitude": -9.2101656, "rating": 4.3}, {"name": "Circle K Centra Listowel", "address": "BRIDGE STREET LISTOWEL KERRY, Co. Kerry, Ireland", "latitude": 52.4480659, "longitude": -9.4785455, "rating": 4.2}, {"name": "Texaco Daly's", "address": "Cork Rd, N22, Ballycasheen, Pinewood, Co. Kerry, V93 F6FW, Ireland", "latitude": 52.0602058, "longitude": -9.4820814, "rating": 3.7}, {"name": "Applegreen", "address": "Rock Road, Ardnamweely, Killarney, Co. Kerry, Ireland", "latitude": 52.0682578, "longitude": -9.5157212, "rating": 4.4}, {"name": "Horan's Filling Station", "address": "Castleview, Co. Kerry, Ireland", "latitude": 52.228573, "longitude": -9.4688328, "rating": 4.2}, {"name": "Top Oil Listowel Kelly's Service Station", "address": "Ballyduhig, Six Crosses, Co. Kerry, V92 E3X2, Ireland", "latitude": 52.41309, "longitude": -9.5118109, "rating": 4.3}, {"name": "Hegartys Service Station N71", "address": "Castlelough, Co. Kerry, Ireland", "latitude": 52.041445, "longitude": -9.4970093, "rating": 3.8}, {"name": "Circle K Killarney", "address": "Park Rd, Avenue, Killarney, Co. Kerry, Ireland", "latitude": 52.0601518, "longitude": -9.498951, "rating": 3.3}, {"name": "Sheehan's", "address": "R561, Farranfore, Co. Kerry, Ireland", "latitude": 52.17071430000001, "longitude": -9.549983899999999, "rating": 4.4}, {"name": "Kelly's Filling Station", "address": "N69, Ballyduhig, Co. Kerry, V92 E3X2, Ireland", "latitude": 52.41299799999999, "longitude": -9.512069, "rating": 4.7}, {"name": "Esso", "address": "Ballynaskreena, Co. Kerry, Ireland", "latitude": 52.43955, "longitude": -9.764199999999999, "rating": 4.6}, {"name": "Circle K", "address": "N72 Main St, Shinnagh, Rathmore, Co. Kerry, Ireland", "latitude": 52.08432570000001, "longitude": -9.220866, "rating": 5}, {"name": "Esso N72 Spar Shop And Restaurant", "address": "Gortroe, Co. Kerry, Ireland", "latitude": 52.0674007, "longitude": -9.5472029, "rating": 4}, {"name": "Hegarty's Petrol Station", "address": "Churchground, Kilgarvan, Co. Kerry, Ireland", "latitude": 51.9032002, "longitude": -9.438548599999999, "rating": 1}, {"name": "Top Oil Killorglin O'Sullivan's Service Station", "address": "Killarney Rd, Dromavally, Killorglin, Co. Kerry, V93 CCY2, Ireland", "latitude": 52.1050938, "longitude": -9.780602199999999, "rating": 4.5}, {"name": "Applegreen", "address": "Muckross Rd, Dromhale, Killarney, Co. Kerry, V93 EFR7, Ireland", "latitude": 52.0527325, "longitude": -9.506629799999999, "rating": 4.2}, {"name": "Circle K", "address": "Road, Fenit, Co. Kerry, V92 R6XC, Ireland", "latitude": 52.26693299999999, "longitude": -9.699292, "rating": 4.3}, {"name": "Inver", "address": "Knockeens, Co. Kerry, Ireland", "latitude": 51.9476007, "longitude": -10.2212601, "rating": 3}, {"name": "Top Oil Milltown Kelly's Service Station", "address": "Church St, Milltown, Co. Kerry, V93 R8HT, Ireland", "latitude": 52.1432965, "longitude": -9.714387, "rating": 4.7}, {"name": "Baraduff Filling Station", "address": "Barraduff, Co. Kerry, Ireland", "latitude": 52.0600095, "longitude": -9.340603699999999, "rating": 2.5}, {"name": "Maxol", "address": "R569, Gortnaboul, Co. Kerry, Ireland", "latitude": 51.9034782, "longitude": -9.4421912, "rating": 0}, {"name": "Circle K Anne Macs Castleisland", "address": "Tralee Rd, Moanmore, Castleisland, Co. Kerry, Ireland", "latitude": 52.2318922, "longitude": -9.4689295, "rating": 4.5}, {"name": "Relihans", "address": "Kilcaragh, Monument, Lixnaw, Co. Kerry, V92 W286, Ireland", "latitude": 52.4027372, "longitude": -9.6169592, "rating": 5}, {"name": "Inver", "address": "Loughanes, Lisselton, Co. Kerry, V31 PV38, Ireland", "latitude": 52.48840999999999, "longitude": -9.576693200000001, "rating": 4.6}, {"name": "filling sation", "address": "Dromhale, Killarney, Co. Kerry, Ireland", "latitude": 52.0532895, "longitude": -9.5072905, "rating": 4}, {"name": "Kissanes petrol station", "address": "Carhoonahone, Co. Kerry, Ireland", "latitude": 52.04493309999999, "longitude": -9.6838836, "rating": 0}, {"name": "Maxol Garvey's Castleisland", "address": "Cahereen East, Co. Kerry, Ireland", "latitude": 52.22884819999999, "longitude": -9.4618681, "rating": 5}, {"name": "Topaz", "address": "Gortaspiddale, Co. Kerry, Ireland", "latitude": 52.3237164, "longitude": -9.7781659, "rating": 4.6}, {"name": "Killarney Rock Filling Station", "address": "Rock Road, Ardnamweely, Killarney, Co. Kerry, V93 HNN1, Ireland", "latitude": 52.0681662, "longitude": -9.5154958, "rating": 0}, {"name": "Quick pick shop and service station", "address": "Coom, Co. Kerry, Ireland", "latitude": 52.1157169, "longitude": -9.271746799999999, "rating": 4}, {"name": "Horgans Centra & Service Station", "address": "Tralee Road, Gortaspiddale, Ardfert, Co. Kerry, Ireland", "latitude": 52.3236981, "longitude": -9.7778615, "rating": 4.3}, {"name": "Maxol N70", "address": "Knockaneyouloo, Co. Kerry, Ireland", "latitude": 52.0128032, "longitude": -10.0987094, "rating": 4.3}, {"name": "Inver", "address": "Iveragh Rd, Castleconway, Killorglin, Co. Kerry, V93 KVP6, Ireland", "latitude": 52.1064266, "longitude": -9.790942300000001, "rating": 4}, {"name": "Circle K", "address": "Ratass, Tralee, Co. Kerry, V92 H292, Ireland", "latitude": 52.26488060000001, "longitude": -9.6787489, "rating": 4.2}, {"name": "Nagles 24 Hour Self Serving Filling Station", "address": "Barraduff, Co. Kerry, Ireland", "latitude": 52.060069, "longitude": -9.340435, "rating": 5}, {"name": "Shell R555", "address": "Duagh, Co. Kerry, Ireland", "latitude": 52.41413, "longitude": -9.388980000000002, "rating": 1}, {"name": "Corrib Oil Tralee", "address": "Cloonalour, Tralee, Co. Kerry, Ireland", "latitude": 52.26981499999999, "longitude": -9.6954213, "rating": 4.5}, {"name": "Esso N71", "address": "Kenmare, Co. Kerry, Ireland", "latitude": 51.87858, "longitude": -9.58222, "rating": 0}, {"name": "Centra The Reeks Killarney", "address": "The Reeks Gateway, Ardnamweely, Tralee Road, Co. Kerry, V93 TRF9, Ireland", "latitude": 52.0688431, "longitude": -9.5165043, "rating": 3.7}, {"name": "Car Wash", "address": "Muckross Rd, Killarney, Co. Kerry, Ireland", "latitude": 52.0532964, "longitude": -9.507049400000001, "rating": 5}, {"name": "Kelloil", "address": "Ratass, Kerry, Ireland", "latitude": 52.2664646, "longitude": -9.682688899999999, "rating": 4.6}, {"name": "Topaz", "address": "Shinnagh, Rathmore, Co. Kerry, Ireland", "latitude": 52.084121, "longitude": -9.220875999999999, "rating": 4.1}]