[{"name": "Top Oil Dreas Service Station", "address": "Station Rd, Kildare, R51 YR23, Ireland", "latitude": 53.1582459, "longitude": -6.909749, "rating": 4.4}, {"name": "Maxol Fitzpatricks", "address": "Dublin Rd, Kildare, Ireland", "latitude": 53.1547953, "longitude": -6.903625799999999, "rating": 4.3}, {"name": "Chapman's", "address": "Kildare Town, Curraghfarm, Kildare, Ireland", "latitude": 53.1544578, "longitude": -6.8947408, "rating": 3}, {"name": "TOP Station Ger Conway Oil", "address": "Monasteverin Road Kildare Q, Ireland", "latitude": 53.157886, "longitude": -6.9324716, "rating": 4}, {"name": "Maxol Service Station Newbridge", "address": "Ballymany, Newbridge, Co. Kildare, W12 Y752, Ireland", "latitude": 53.1670904, "longitude": -6.8163728, "rating": 4.1}, {"name": "Circle K Newbridge", "address": "Moorefield Rd, Kilbelin, Newbridge, Co. Kildare, Ireland", "latitude": 53.1760476, "longitude": -6.8032404, "rating": 4.2}, {"name": "MCLOIL McLoughlins", "address": "Ballymany, Moorfield, Newbridge, Co. Kildare, Ireland", "latitude": 53.1710863, "longitude": -6.810672200000001, "rating": 4.3}, {"name": "Applegreen", "address": "Edward St, Kilbelin, Newbridge, Co. Kildare, W12 Y920, Ireland", "latitude": 53.1756909, "longitude": -6.804569499999999, "rating": 4.2}, {"name": "Campus Nurney", "address": "R415, Nurney, Co. Kildare, Ireland", "latitude": 53.0943793, "longitude": -6.9476741, "rating": 3.4}, {"name": "Emo Duffy's", "address": "Naas Rd, Littleconnell, Newbridge, Co. Kildare, Ireland", "latitude": 53.18415419999999, "longitude": -6.7882853, "rating": 4.1}, {"name": "Top Fueling Ireland & Spar", "address": "Ladytown, naas, Co. Kildare, Ireland", "latitude": 53.20748400000001, "longitude": -6.7421283, "rating": 3.9}, {"name": "Naas Oil (Circle K)", "address": "Logstown, Co. Kildare, Ireland", "latitude": 53.1387162, "longitude": -6.7382639, "rating": 4.2}, {"name": "Top Oil Rathangan Service Station", "address": "Rathangan Demesne, Rathangan, Co. Kildare, R51 YW70, Ireland", "latitude": 53.2193913, "longitude": -6.990620799999999, "rating": 4}, {"name": "Cross Keys Service Station", "address": "R417, Kilbeg, Cross Keys, Co. Kildare, Ireland", "latitude": 53.104156, "longitude": -7.015752, "rating": 2.3}, {"name": "Circle K", "address": "M9, Co. Kildare, Ireland", "latitude": 53.08854909999999, "longitude": -6.755469199999999, "rating": 4.2}, {"name": "Circle K Express", "address": "Monasterevin, Barraderra, Monasterevin, Co. Kildare, Ireland", "latitude": 53.1431155, "longitude": -7.056574299999999, "rating": 4.5}, {"name": "Top Oil Newhall Service Station", "address": "Naas Enterprise Park, Newhall, Naas, Co. Kildare, W91 EH9N, Ireland", "latitude": 53.2071194, "longitude": -6.742475799999999, "rating": 4.2}, {"name": "Applegreen", "address": "Main St, Kilcullenbridge, Kilcullen, Co. Kildare, R56 YE39, Ireland", "latitude": 53.12984720000001, "longitude": -6.7458452, "rating": 4.2}, {"name": "AS 24", "address": "Tougher Oil, Lime Dr, Newhall, Naas, Co. Kildare, Ireland", "latitude": 53.2075262, "longitude": -6.7418821, "rating": 4.8}, {"name": "Crookstown Service Station", "address": "Crookstown Upper, Crookstown, Co. Kildare, R14 CX58, Ireland", "latitude": 53.018138, "longitude": -6.800953799999999, "rating": 4.8}, {"name": "Applegreen", "address": "Main St, Gingerstown, Caragh, Co. Kildare, W91 XN88, Ireland", "latitude": 53.23601710000001, "longitude": -6.727429, "rating": 4.5}, {"name": "Junction 14 Mayfield Texaco", "address": "Service Area, M7, Mayfield, Monasterevin, Co. Kildare, W34 E789, Ireland", "latitude": 53.1448523, "longitude": -7.012931200000001, "rating": 4.3}, {"name": "Texaco", "address": "Crookstown Upper, Co. Kildare, Ireland", "latitude": 53.0185645, "longitude": -6.8004774, "rating": 4}, {"name": "Top Oil Marron's Quick Pick", "address": "Main St, Sallins, Co. Kildare, W91 N9XC, Ireland", "latitude": 53.2504125, "longitude": -6.6649505, "rating": 4.3}, {"name": "Maxol Service Station The Crossings", "address": "The Crossings, Naas East, Naas, Co. Kildare, W91 A3XV, Ireland", "latitude": 53.2209151, "longitude": -6.658082299999999, "rating": 4.1}, {"name": "narraghmore", "address": "Lipstown Upper, Ballynagussaun, Narraghmore, Co. Kildare, Ireland", "latitude": 53.05643610000001, "longitude": -6.8570322, "rating": 0}, {"name": "Casey's Londis Newbridge", "address": "Moorefield Rd, Kilbelin, Newbridge, Co. Kildare, Ireland", "latitude": 53.1762458, "longitude": -6.8029731, "rating": 3.8}, {"name": "Gala", "address": "Littleconnell, Newbridge, Co. Kildare, Ireland", "latitude": 53.1838805, "longitude": -6.7879934, "rating": 3.4}, {"name": "Fitzpatrick's New Lodge, Monasterevin", "address": "Dublin Rd, Gorteenoona, Monasterevin, Co. Kildare, W34 HW66, Ireland", "latitude": 53.1380533, "longitude": -7.0534453, "rating": 4.4}, {"name": "Wards Service Station", "address": "Churchview Estate, Carragh, Naas, Co. Kildare, Ireland", "latitude": 53.3010692, "longitude": -6.824113700000001, "rating": 4.3}, {"name": "Applegreen", "address": "Ballyshannon, Derrinturn, Co. Kildare, W91 X9KC, Ireland", "latitude": 53.3383923, "longitude": -6.9382797, "rating": 0}, {"name": "Rathsteward Service Station", "address": "Monasterevin Rd, Paudeenourstown, Kildare, R14 E956, Ireland", "latitude": 53.0017053, "longitude": -6.988213399999999, "rating": 0}, {"name": "Maxol Service Station Sallins Road", "address": "Sallins Rd, Oldtown Demesne, Naas, Co. Kildare, W91 NYH6, Ireland", "latitude": 53.2316958, "longitude": -6.661343899999999, "rating": 4.3}, {"name": "Inver Athy", "address": "Woodstock St, Townparks, Athy, Co. Kildare, Ireland", "latitude": 52.9951091, "longitude": -6.9914191, "rating": 4.1}, {"name": "Circle K Prosperous", "address": "Downings North, Co. Kildare, W91 NYP3, Ireland", "latitude": 53.2876199, "longitude": -6.761065599999999, "rating": 4.2}, {"name": "Maxol Behan's", "address": "Capdoo Commons, Clane, Co. Kildare, Ireland", "latitude": 53.2965859, "longitude": -6.6798177, "rating": 4.1}, {"name": "Applegreen Millennium Park", "address": "Millennium Park, Ploopluck, Naas, Co. Kildare, W91 RP0A, Ireland", "latitude": 53.2279167, "longitude": -6.6867357, "rating": 4.3}, {"name": "Texaco Spar Allenwood", "address": "R403, Derrymullen, Allenwood, Co. Kildare, Ireland", "latitude": 53.2838735, "longitude": -6.8599847, "rating": 4.3}, {"name": "Emo - Straffan Stores", "address": "Lodgepark, Straffan, Co. Kildare, Ireland", "latitude": 53.3111255, "longitude": -6.609125199999999, "rating": 3.8}, {"name": "Applegreen", "address": "Sallins Rd, Oldtown Demesne, Naas, Co. Kildare, W91 R25P, Ireland", "latitude": 53.2260796, "longitude": -6.659839499999999, "rating": 4.1}, {"name": "Circle K", "address": "Clane Road, Abbeyland, Clane, Co. Kildare, Ireland", "latitude": 53.2933805, "longitude": -6.6864782, "rating": 4.1}, {"name": "Circle K", "address": "Dublin Rd, Shamrocklodge, Athy, Co. Kildare, R14 T254, Ireland", "latitude": 52.9943226, "longitude": -6.9674122, "rating": 4}, {"name": "Circle K", "address": "Maganey Lower, Maganey, Co. Kildare, Ireland", "latitude": 52.9086466, "longitude": -6.9327224, "rating": 4.7}, {"name": "Applegreen", "address": "Maynooth Rd, Crodaun, Roundabout, Co. Kildare, W23 N96X, Ireland", "latitude": 53.3586943, "longitude": -6.547677800000001, "rating": 4.1}, {"name": "Home Fuel Depot", "address": "Naas Rd, Sousheen Common, Ballymore Eustace, Co. Kildare, Ireland", "latitude": 53.13316099999999, "longitude": -6.614526, "rating": 0}, {"name": "Maxol", "address": "Naas Road, Kill West, Kill, Co. Kildare, W91 VNN3, Ireland", "latitude": 53.2478106, "longitude": -6.5957313, "rating": 4.3}, {"name": "Applegreen Derrinturn Service Station", "address": "Main St, Ballyshannon, Derrinturn, Co. Kildare, W91 X9KC, Ireland", "latitude": 53.3383782, "longitude": -6.9382549, "rating": 4.1}, {"name": "Top Marron's Gala", "address": "618 Clane Rd, Sallins, Co. Kildare, Ireland", "latitude": 53.2503913, "longitude": -6.665006399999999, "rating": 4.4}, {"name": "Maxol R407", "address": "Oldtown Demesne, Naas, Co. Kildare, Ireland", "latitude": 53.23171, "longitude": -6.6612275, "rating": 4.2}, {"name": "Esso", "address": "Allenwood Road, Curryhills, Prosperous, Co. Kildare, W91 DA3A, Ireland", "latitude": 53.28778, "longitude": -6.7608383, "rating": 0}, {"name": "Emo Derrinturn", "address": "R403 Main St, Ballyshannon, Derrinturn, Co. Kildare, W91 A0W7, Ireland", "latitude": 53.3377326, "longitude": -6.936889, "rating": 0}, {"name": "Mace", "address": "Barberstown Rd, Lodgepark, Straffan, Co. Kildare, Ireland", "latitude": 53.31116180000001, "longitude": -6.6090665, "rating": 3.8}, {"name": "Inver", "address": "Donadea, Painstown, Co. Kildare, W91 X97V, Ireland", "latitude": 53.3335404, "longitude": -6.6924771, "rating": 4.3}, {"name": "Circle K", "address": "N7 Naas Rd, Blackhill, Kill, Co. Kildare, W91 TP38, Ireland", "latitude": 53.2533704, "longitude": -6.5689072, "rating": 4}, {"name": "Esso", "address": "Church St, Commons East, Kildare, Ireland", "latitude": 53.4034281, "longitude": -6.6716739, "rating": 5}, {"name": "Maxol Mervyn's", "address": "Kilcullen Rd, Naas East, Naas, Co. Kildare, Ireland", "latitude": 53.2125778, "longitude": -6.666323999999999, "rating": 4.6}, {"name": "Monread Fare", "address": "Monread Rd, Monread North, Naas, Co. Kildare, W91 PCP5, Ireland", "latitude": 53.2413186, "longitude": -6.6570928, "rating": 4.4}, {"name": "Applegreen", "address": "Kilmorebrannagh, Eastbound, Co. Kildare, A83 T279, Ireland", "latitude": 53.4132513, "longitude": -6.8814338, "rating": 4.1}, {"name": "Texaco Monread", "address": "Monread Rd, Monread North, Naas, Co. Kildare, Ireland", "latitude": 53.2410303, "longitude": -6.6573278, "rating": 4.1}, {"name": "Circle K Maynooth", "address": "Greenfield, Straffan Road, Co. Kildare, Ireland", "latitude": 53.370068, "longitude": -6.590399, "rating": 2.7}]