[{"name": "Circle K", "address": "Waterford Rd, Cashel, Kilkenny, R95 WVX9, Ireland", "latitude": 52.6409069, "longitude": -7.248594199999999, "rating": 4.1}, {"name": "Maxol Service Station Kilkenny", "address": "Dublin Rd, Carlow Road, Middleknock, Kilkenny, R95 HKD1, Ireland", "latitude": 52.6488002, "longitude": -7.2260679, "rating": 4}, {"name": "Circle K", "address": "Callan Rd, Sugarloafhill, Kilkenny, R95 P9HX, Ireland", "latitude": 52.6433802, "longitude": -7.2622188, "rating": 3.4}, {"name": "Blackquarry Service Station", "address": "Bennettsbridge Road, Kilkenny, Ireland", "latitude": 52.6430995, "longitude": -7.234503199999999, "rating": 4.3}, {"name": "Applegreen", "address": "Vicar St, Gardens, Kilkenny, Ireland", "latitude": 52.6563552, "longitude": -7.255984400000001, "rating": 0}, {"name": "Circle K", "address": "Castlecomer Rd, Newpark Lower, Kilkenny, R95 EA3C, Ireland", "latitude": 52.6608537, "longitude": -7.2498912, "rating": 3.9}, {"name": "Spar Irishtown Service Station", "address": "693 Vicar St, Irishtown, Kilkenny, R95 CFT6, Ireland", "latitude": 52.6564702, "longitude": -7.255767800000001, "rating": 4.3}, {"name": "Applegreen", "address": "Bennettsbridge Rd, Quarryland, Kilkenny, R65 C9RR, Ireland", "latitude": 52.6430067, "longitude": -7.2345937, "rating": 4.3}, {"name": "Circle K", "address": "Castlecomer Rd, Bleach Green, Kilkenny, Ireland", "latitude": 52.6662572, "longitude": -7.252521599999999, "rating": 4.1}, {"name": "Top Oil Kilkenny Depot", "address": "Hebron Industrial Estate, Hebron Rd, Leggetsrath West, Kilkenny, R95 XC67, Ireland", "latitude": 52.6550259, "longitude": -7.231455599999999, "rating": 4.3}, {"name": "Amber", "address": "Holligan's Filling Station, College Rd, Walkinslough, Kilkenny, R95 X2NF, Ireland", "latitude": 52.64498469999999, "longitude": -7.258688899999999, "rating": 4.4}, {"name": "Hennessy Fuels", "address": "Hebron Rd, Leggetsrath West, Kilkenny, Ireland", "latitude": 52.6544328, "longitude": -7.231352399999999, "rating": 0}, {"name": "Emo", "address": "Hebron Rd, Leggetsrath West, Kilkenny, Ireland", "latitude": 52.6541617, "longitude": -7.231375, "rating": 0}, {"name": "Talbots Inch Filling Station", "address": "4 Talbot's Inch Village, Talbot's Gate, Talbotsinch, Kilkenny, R95 R2N8, Ireland", "latitude": 52.67401599999999, "longitude": -7.2701445, "rating": 4.2}, {"name": "O'Mahonys Service Station", "address": "Ballyredding West, Thomastown Road, Co. Kilkenny, R95 YFW9, Ireland", "latitude": 52.5886044, "longitude": -7.1799344, "rating": 3.6}, {"name": "Talbots Gate Creche", "address": "34 Talbot's Ct, Freshford Road, Talbotsinch, Kilkenny, R95 D8Y2, Ireland", "latitude": 52.67401599999999, "longitude": -7.2701445, "rating": 4.7}, {"name": "Circle K", "address": "2 High St, Gowran, Co. Kilkenny, Ireland", "latitude": 52.6307512, "longitude": -7.0617813, "rating": 4.5}, {"name": "O'Keefe's Garage", "address": "Market St, Thomastown, Kilkenny, Ireland", "latitude": 52.5253348, "longitude": -7.1386359, "rating": 1}, {"name": "Emo", "address": "Main Street, Ballyragget, Co. Kilkenny, R95 K38K, Ireland", "latitude": 52.7885445, "longitude": -7.3328603, "rating": 2}, {"name": "Top Oil Bennettsbridge Service Station", "address": "R700, Ballyredding West, Bennettsbridge, Co. Kilkenny, R95 YFW9, Ireland", "latitude": 52.5886101, "longitude": -7.1801144, "rating": 4.4}, {"name": "Applegreen", "address": "M9 Exit 7, Jordanstown, Co. Kilkenny, R95 R2X6, Ireland", "latitude": 52.67995699999999, "longitude": -7.034754299999999, "rating": 4.2}, {"name": "Fuel station", "address": "R699, Callan South, Callan, Co. Kilkenny, Ireland", "latitude": 52.5449361, "longitude": -7.392162600000001, "rating": 4.2}, {"name": "Top R699", "address": "Callan South, Callan, Co. Kilkenny, Ireland", "latitude": 52.54514, "longitude": -7.393350000000001, "rating": 3.7}, {"name": "Inver N77 Dooley's Garage", "address": "Foulksrath, Jenkinstown, Ballyragget, Co. Kilkenny, Ireland", "latitude": 52.75018, "longitude": -7.32623, "rating": 4.5}, {"name": "Texaco", "address": "Lady's Well St, Thomastown, Co. Kilkenny, Ireland", "latitude": 52.5294523, "longitude": -7.141961500000001, "rating": 5}, {"name": "Amber Woodsgift Petrol Station", "address": "Darbyshill, Woodsgift, Co. Kilkenny, Ireland", "latitude": 52.7192942, "longitude": -7.512290999999999, "rating": 4.5}, {"name": "Top Oil Callan Co-Op Service Station", "address": "West St, R699, Callan, Co. Kilkenny, R95 CX9Y, Ireland", "latitude": 52.5449387, "longitude": -7.3921738, "rating": 4.3}, {"name": "Texaco N78", "address": "Glebe, Castlecomer, Co. Kilkenny, Ireland", "latitude": 52.79973, "longitude": -7.21001, "rating": 4.2}, {"name": "Maher's Service Station", "address": "Clonmel Rd, Cannafahy, Callan, Co. Kilkenny, Ireland", "latitude": 52.540243, "longitude": -7.393886, "rating": 1}, {"name": "Inver", "address": "Glebe, Johnstown, Co. Kilkenny, E41 H952, Ireland", "latitude": 52.75282199999999, "longitude": -7.553997499999999, "rating": 4.4}, {"name": "Emo Oil - Carroll's Centra", "address": "Knocktopher Knocktopher r713, Co. Kilkenny, Ireland", "latitude": 52.4864666, "longitude": -7.218667000000001, "rating": 4.7}, {"name": "Top Oil Fairview Service Station", "address": "R705, Borris, Graiguenamanagh, Co. Kilkenny, R95 A0CK, Ireland", "latitude": 52.544813, "longitude": -6.959090100000001, "rating": 4.6}, {"name": "Inver", "address": "Clonmel Rd, Cannafahy, Callan, Co. Kilkenny, R95 P59K, Ireland", "latitude": 52.5403289, "longitude": -7.394207199999999, "rating": 4.7}, {"name": "Kehoe's Garage", "address": "R705, Carranroe Upper, The Rower, Co. Kilkenny, Ireland", "latitude": 52.4551458, "longitude": -6.958716, "rating": 4.3}, {"name": "Unecol Oil", "address": "Westcourt Business Park, Callan, Co. Kilkenny, R95 TD45, Ireland", "latitude": 52.5486387, "longitude": -7.394191199999999, "rating": 5}, {"name": "Listerlin Fuel & Grocery Store", "address": "Listerlin, Tullogher, Co. Kilkenny, X91 YV88, Ireland", "latitude": 52.4092621, "longitude": -7.075192299999999, "rating": 4.9}, {"name": "Inver", "address": "Kilkenny St, Monabrika, Freshford, Co. Kilkenny, R95 V2F5, Ireland", "latitude": 52.7328002, "longitude": -7.3970011, "rating": 4.6}, {"name": "Inver", "address": "Theach T\u00e1bhairine, Main St, Barrowmount, Goresbridge, Co. Kilkenny, Ireland", "latitude": 52.62979379999999, "longitude": -6.9931348, "rating": 0}, {"name": "Inver Slieverue Junction", "address": "Inver, Junction, Slieverue, Co. Kilkenny, X91 E6CY, Ireland", "latitude": 52.2870836, "longitude": -7.061232400000001, "rating": 4.3}]