[{"name": "Drive service station portlaoise", "address": "Mountrath Rd, Clonroosk Little, Portlaoise, Co. Laois, R32 V8XA, Ireland", "latitude": 53.0333273, "longitude": -7.3290285, "rating": 4.2, "county": "Laois"}, {"name": "Emo", "address": "Dublin Road, Clonbarrow, Mountrath, Co. Laois, R32 E19F, Ireland", "latitude": 53.0040736, "longitude": -7.467898600000001, "rating": 4.4, "county": "Laois"}, {"name": "Top Oil Stradbally Service Station", "address": "Main St, Stradbally, Co. Laois, R32 V2YS, Ireland", "latitude": 53.0170007, "longitude": -7.150389799999999, "rating": 4.2, "county": "Laois"}, {"name": "Portlaoise Service Station", "address": "Mountmellick Rd, Maryborough, Portlaoise, Co. Laois, Ireland", "latitude": 53.0415983, "longitude": -7.3101067, "rating": 4.2, "county": "Laois"}, {"name": "Ballybrittas Service Station", "address": "32-33 Abbey Street Lower, Tullaghan, Co. Laois, D01 DA29, Ireland", "latitude": 53.1101554, "longitude": -7.1349246, "rating": 0, "county": "Laois"}, {"name": "Emo Oil - Dunne's Gala", "address": "Abbeyleix Rd, Curriersbog, Portlaoise, Co. Laois, R32 W52A, Ireland", "latitude": 53.0237555, "longitude": -7.299466700000001, "rating": 4.2, "county": "Laois"}, {"name": "Maxol Bracken's", "address": "Stradbally Rd, Ballymooney, Portlaoise, Co. Laois, Ireland", "latitude": 53.03310159999999, "longitude": -7.273210400000001, "rating": 4.3, "county": "Laois"}, {"name": "Circle K Portlaoise", "address": "Mountmellick Rd, N80, Gorteen, Portlaoise, Co. Laois, R32 PK8H, Ireland", "latitude": 53.0508806, "longitude": -7.3204035, "rating": 4.1, "county": "Laois"}, {"name": "Texaco Spar Mountmellick", "address": "Spar Service Station, Emo, Townparks, Mountmellick, Co. Laois, Ireland", "latitude": 53.1235328, "longitude": -7.332727599999999, "rating": 4.2, "county": "Laois"}, {"name": "Applegreen", "address": "Irishtown, Mountmellick, Co. Laois, R32 NP9N, Ireland", "latitude": 53.1091504, "longitude": -7.328259300000001, "rating": 4.2, "county": "Laois"}, {"name": "New Inn Cross, Portlaoise, Co Laois", "address": "Unnamed Road, Cappakeel, Emo, Co. Laois, Ireland", "latitude": 53.0885348, "longitude": -7.1852422, "rating": 5, "county": "Laois"}, {"name": "Mighty Mols Petrol Station", "address": "Portlaoise Rd, Clonbarrow, Mountrath, Co. Laois, Ireland", "latitude": 53.0041061, "longitude": -7.4676639, "rating": 4.5, "county": "Laois"}, {"name": "Certa", "address": "Knocknamoe, Co. Laois, Ireland", "latitude": 52.9124668, "longitude": -7.342988099999999, "rating": 4.4, "county": "Laois"}, {"name": "AS 24", "address": "17 M7, MOTORWAY, Portlaoise, Co. Laois, Ireland", "latitude": 53.014014, "longitude": -7.304081, "rating": 0, "county": "Laois"}, {"name": "Certa", "address": "Abbeyleix Rd, Curriersbog, Portlaoise, Co. Laois, Ireland", "latitude": 53.0237384, "longitude": -7.299620999999998, "rating": 4.4, "county": "Laois"}, {"name": "Corrib Oil Portlaoise Petrol Station", "address": "Mountmellick Rd, Gorteen, Portlaoise, Co. Laois, Ireland", "latitude": 53.05091299999999, "longitude": -7.3205973, "rating": 4.3, "county": "Laois"}, {"name": "Circle K", "address": "Galesquarter, Co. Laois, Ireland", "latitude": 52.8175015, "longitude": -7.4765388, "rating": 4.3, "county": "Laois"}, {"name": "Inver", "address": "Ballyroan, Co. Laois, R32 X7NW, Ireland", "latitude": 52.9505458, "longitude": -7.304, "rating": 4.4, "county": "Laois"}, {"name": "Applegreen", "address": "Midway Complex, M7 Junction 17 (N77, R423, Meelick, Portlaoise, Co. Laois, Ireland", "latitude": 53.0151457, "longitude": -7.3003027, "rating": 4.3, "county": "Laois"}, {"name": "Texaco Service Station Laois", "address": "Srahduff Glebe, Clonaslee, Co. Laois, R32 V6YK, Ireland", "latitude": 53.1522295, "longitude": -7.5556758, "rating": 4.7, "county": "Laois"}, {"name": "Swift Oil", "address": "Apartment 3, McDonnell's, Market Square, Knocknamoe, Abbeyleix, Co. Laois, Ireland", "latitude": 52.91398119999999, "longitude": -7.3472407, "rating": 0, "county": "Laois"}, {"name": "Circle K", "address": "Abbeyleix Rd, Kylekiproe, Portlaoise, Co. Laois, R32 TYN0, Ireland", "latitude": 53.0325158, "longitude": -7.3024745, "rating": 3.5, "county": "Laois"}, {"name": "The Gandon Inn Service Station", "address": "Exit 15 M7, Emo, Co. Laois, R32 A256, Ireland", "latitude": 53.0922782, "longitude": -7.1793264, "rating": 3.9, "county": "Laois"}, {"name": "Texaco Durrow", "address": "Patrick Street, Durrow Townparks, Durrow, Co. Laois, R32 H2R9, Ireland", "latitude": 52.8423026, "longitude": -7.4004105, "rating": 4.3, "county": "Laois"}, {"name": "Circle K", "address": "Cork Road, Knocknamoe, Abbeyleix, Co. Laois, Ireland", "latitude": 52.9083268, "longitude": -7.352280899999998, "rating": 3.6, "county": "Laois"}, {"name": "Applegreen", "address": "Dublin Rd, Ballyroan, Portlaoise, Co. Laois, R32 HX7V, Ireland", "latitude": 53.0390167, "longitude": -7.2757, "rating": 4.2, "county": "Laois"}, {"name": "Emo R422", "address": "Kilnacash, Co. Laois, Ireland", "latitude": 53.11563, "longitude": -7.28966, "rating": 3.8, "county": "Laois"}, {"name": "Circle K Express", "address": "Graigue, Co. Laois, Ireland", "latitude": 52.8403586, "longitude": -6.946284599999999, "rating": 4.3, "county": "Laois"}, {"name": "Smyth Services & Fuels Ltd", "address": "B Company Headquarters, Abbeyleix Rd, Esker Hills, Portlaoise, Co. Laois, Ireland", "latitude": 53.0805839, "longitude": -7.3906204, "rating": 0, "county": "Laois"}, {"name": "Maxol", "address": "Tullaghan, Co. Laois, Ireland", "latitude": 53.1102173, "longitude": -7.1350764, "rating": 4.3, "county": "Laois"}, {"name": "Croydon Court", "address": "Mountmellick Rd, Maryborough, Portlaoise, Co. Laois, Ireland", "latitude": 53.0415596, "longitude": -7.3100684, "rating": 5, "county": "Laois"}, {"name": "Circle K", "address": "M8 Junction 3, Tintore, Ballacolla, Co. Laois, R32 X8H7, Ireland", "latitude": 52.8664675, "longitude": -7.480764099999999, "rating": 3, "county": "Laois"}, {"name": "Morris Oil", "address": "R432, Co. Laois, Ireland", "latitude": 52.87379989999999, "longitude": -7.308213599999999, "rating": 3, "county": "Laois"}, {"name": "Texaco Dublin Road", "address": "Dublin Rd, Kilminchy, Laois, Ireland", "latitude": 53.0413435, "longitude": -7.267734300000001, "rating": 4.4, "county": "Laois"}, {"name": "Texaco R445", "address": "Kilminchy, Portlaoise, Co. Laois, Ireland", "latitude": 53.04136219999999, "longitude": -7.2669689, "rating": 4.6, "county": "Laois"}, {"name": "Maxol", "address": "Abbeyleix Rd, Kylekiproe, Portlaoise, Co. Laois, Ireland", "latitude": 53.0329244, "longitude": -7.3021897, "rating": 4.1, "county": "Laois"}, {"name": "Applegreen", "address": "Limerick Rd, Mountrath, Mountrath Business Park, Co. Laois, R32 AH67, Ireland", "latitude": 52.9929782, "longitude": -7.483417299999999, "rating": 4.4, "county": "Laois"}, {"name": "Emo Oil - Rosecourt Filling Station", "address": "Patrick St, Droughill, Portarlington, Co. Laois, Ireland", "latitude": 53.16121, "longitude": -7.192507699999999, "rating": 2.3, "county": "Laois"}, {"name": "Petrol Station Dci", "address": "Tintore, Co. Laois, Ireland", "latitude": 52.8664047, "longitude": -7.479973199999999, "rating": 3.8, "county": "Laois"}, {"name": "Campus", "address": "Crettyard, Co. Laois, Ireland", "latitude": 52.8461246, "longitude": -7.126548499999999, "rating": 3.8, "county": "Laois"}, {"name": "Mountrath Service Station", "address": "Mountrath Business Park, Limerick Road, Dysartbeagh, Mountrath, Co. Laois, R32 AH67, Ireland", "latitude": 52.993001, "longitude": -7.483467399999999, "rating": 0, "county": "Laois"}, {"name": "Topaz", "address": "R445, Cappakeel, Co. Laois, Ireland", "latitude": 53.0925382, "longitude": -7.179536599999999, "rating": 3.9, "county": "Laois"}, {"name": "12 A Bay Industrial Estate", "address": "Bay Road Business Park, Bay Rd, Townparks, Mountmellick, Co. Laois, Ireland", "latitude": 53.1230085, "longitude": -7.325667, "rating": 0, "county": "Laois"}, {"name": "Circle K", "address": "The Gandon Inn, Portlaoise North, Portlaoise, Co. Laois, Ireland", "latitude": 53.0923422, "longitude": -7.1793105, "rating": 4, "county": "Laois"}, {"name": "Maxol Service Station Portarlington", "address": "Maxol Service Station Portarlington Dublin Road, Portarlington, Co. Laois, R32 N4FD, Ireland", "latitude": 53.1560376, "longitude": -7.1832829, "rating": 4.2, "county": "Laois"}, {"name": "Inver", "address": "Townparks, Borris-in-Ossory, Co. Laois, Ireland", "latitude": 52.9396711, "longitude": -7.627332099999999, "rating": 4.1, "county": "Laois"}, {"name": "Circle K Ballylinan", "address": "Cowpark, Ballylynan, Co. Laois, Ireland", "latitude": 52.9413594, "longitude": -7.0446198, "rating": 4.4, "county": "Laois"}, {"name": "Cullahill Service Station", "address": "Main St, Galesquarter, Cullohill, Co. Laois, Ireland", "latitude": 52.817245, "longitude": -7.476838099999998, "rating": 4.8, "county": "Laois"}, {"name": "Portlaoise Plaza", "address": "Junction 17 on M7 Togher, Curriersbog, Co. Laois, Ireland", "latitude": 53.0143998, "longitude": -7.307369299999999, "rating": 4.5, "county": "Laois"}, {"name": "Dunkeen Oil Limited", "address": "Mountmellick Rd, Maryborough, Portlaoise, Co. Laois, Ireland", "latitude": 53.041609, "longitude": -7.3101173, "rating": 4.5, "county": "Laois"}, {"name": "Applegreen", "address": "Killeshin Rd, Graigue, Carlow, Co. Laois, R93 RW62, Ireland", "latitude": 52.8403811, "longitude": -6.9589444, "rating": 4.3, "county": "Laois"}, {"name": "Inver", "address": "Patrick St, Kilmalogue, Portarlington, Co. Laois, R32 R292, Ireland", "latitude": 53.1618642, "longitude": -7.193852499999999, "rating": 4.8, "county": "Laois"}, {"name": "Geneva Stores Service Station", "address": "Crettyard, Co. Laois, Ireland", "latitude": 52.8461163, "longitude": -7.126619600000001, "rating": 4.6, "county": "Laois"}, {"name": "Certa Portlaoise", "address": "Tea Ln, Mountrath Rd, Knockmay, Portlaoise, Co. Laois, R32 APK1, Ireland", "latitude": 53.0331872, "longitude": -7.3063104, "rating": 4.7, "county": "Laois"}, {"name": "Centra Portlaoise Texaco Dublin Rd", "address": "Portlaoise Service Station, Dublin Rd, Portlaoise, Co. Laois, R32 HX3X, Ireland", "latitude": 53.0410982, "longitude": -7.2674237, "rating": 4.1, "county": "Laois"}, {"name": "Applegreen", "address": "Cooltederry, Portarlington, Co. Laois, Ireland", "latitude": 53.1569379, "longitude": -7.184713899999998, "rating": 4.5, "county": "Laois"}, {"name": "Centra McSorley Mountrath Rd", "address": "Mountrath Rd, Clonroosk Little, Portlaoise, Co. Laois, Ireland", "latitude": 53.0335048, "longitude": -7.328974799999999, "rating": 2.9, "county": "Laois"}, {"name": "Mahers Mills", "address": "Bellair, Portlaoise, Co. Laois, Ireland", "latitude": 53.1469526, "longitude": -7.514059199999999, "rating": 4.8, "county": "Laois"}, {"name": "Gala Borris-in-Ossory Midlands Service Station", "address": "Main St, Townparks, Borris-in-Ossory, Co. Laois, Ireland", "latitude": 52.9397045, "longitude": -7.6272208, "rating": 0, "county": "Laois"}, {"name": "Gala", "address": "1 Patrick St, Kilmalogue, Portarlington, Co. Offaly, R32 AK61, Ireland", "latitude": 53.1619167, "longitude": -7.1940314, "rating": 4.6, "county": "Laois"}]