[{"name": "Top Oil Leitrim Village McCormack's Mace", "address": "Main St, Tullylannan, Leitrim Village, N41 V0A6, Ireland", "latitude": 53.9891606, "longitude": -8.0640473, "rating": 4.5, "county": "Leitrim"}, {"name": "Circle K", "address": "Leitrim Rd, Townparks, Carrick-On-Shannon, Co. Leitrim, N41 A5D5, Ireland", "latitude": 53.94861150000001, "longitude": -8.0919034, "rating": 3.2, "county": "Leitrim"}, {"name": "Kellehers Filling Station", "address": "Main St., Kilclarebeg, Kilclare, Co. Leitrim, Ireland", "latitude": 54.0084543, "longitude": -8.014942999999999, "rating": 5, "county": "Leitrim"}, {"name": "KENNEDY'S SERVICE STATION", "address": "Castlecara Rd, Correen, Carrick-On-Shannon, Co. Leitrim, Ireland", "latitude": 53.94412699999999, "longitude": -8.070691199999999, "rating": 4.5, "county": "Leitrim"}, {"name": "McCormack Mace", "address": "Attifinlay, Carrick On Shannon, Co. Leitrim, Ireland", "latitude": 53.94518830000001, "longitude": -8.0855221, "rating": 5, "county": "Leitrim"}, {"name": "Lunney's Service Station", "address": "Cortober, Carrick-On-Shannon, Co. Leitrim, Ireland", "latitude": 53.9411192, "longitude": -8.100553, "rating": 4.1, "county": "Leitrim"}, {"name": "Circle K Express", "address": "Dublin Rd, Correen, Carrick-On-Shannon, Co. Leitrim, Ireland", "latitude": 53.943907, "longitude": -8.0710183, "rating": 4.4, "county": "Leitrim"}, {"name": "Spar Topaz", "address": "Leitrim Rd, Townparks, Carrick-On-Shannon, Co. Leitrim, Ireland", "latitude": 53.9486037, "longitude": -8.0918337, "rating": 4.5, "county": "Leitrim"}, {"name": "Glebe Street Filling Station", "address": "Glebe St, Mohill, Co. Leitrim, Ireland", "latitude": 53.9237346, "longitude": -7.866504699999999, "rating": 4.3, "county": "Leitrim"}, {"name": "Stewarts Oil", "address": "Cortober, Carrick-On-Shannon, Co. Roscommon, Ireland", "latitude": 53.9418768, "longitude": -8.106232, "rating": 4.4, "county": "Leitrim"}, {"name": "Daly\u2019s", "address": "1 Main St, Drumsna, Co. Leitrim, N41 E0R6, Ireland", "latitude": 53.9260473, "longitude": -8.0090323, "rating": 4.4, "county": "Leitrim"}, {"name": "Crowes Garage And Filling Station", "address": "Drumod Beg, Drumod, Co. Leitrim, Ireland", "latitude": 53.8611252, "longitude": -7.923688699999999, "rating": 4.6, "county": "Leitrim"}, {"name": "Fuel", "address": "R202, Co. Leitrim, Ireland", "latitude": 54.0407305, "longitude": -7.8301448, "rating": 0, "county": "Leitrim"}, {"name": "Texaco", "address": "R368, Cortober, Carrick-On-Shannon, Co. Roscommon, Ireland", "latitude": 53.941233, "longitude": -8.1005599, "rating": 0, "county": "Leitrim"}, {"name": "Cashin's Filling Station", "address": "Mohill, Co. Leitrim, Ireland", "latitude": 53.9205459, "longitude": -7.8687051, "rating": 3.9, "county": "Leitrim"}, {"name": "Corrib Oil Ballinamore Petrol Station", "address": "Longstones, Co. Leitrim, Ireland", "latitude": 54.04056, "longitude": -7.8302, "rating": 4.5, "county": "Leitrim"}, {"name": "Drumsna Fuels", "address": "Quay St, Drumsna, Co. Leitrim, Ireland", "latitude": 53.9244784, "longitude": -8.00844, "rating": 0, "county": "Leitrim"}]