[{"name": "Circle K", "address": "Ballysimon Rd, Limerick, V94 V1KF, Ireland", "latitude": 52.65266099999999, "longitude": -8.5936, "rating": 4.1, "county": "Limerick"}, {"name": "Circle K Dock Road", "address": "Dock Rd, Limerick, Ireland", "latitude": 52.6581257, "longitude": -8.6399434, "rating": 4.4, "county": "Limerick"}, {"name": "Texaco Spar Parkway", "address": "The Parkway, Dublin Rd, Limerick, Ireland", "latitude": 52.6630249, "longitude": -8.592765, "rating": 3.7, "county": "Limerick"}, {"name": "Circle K", "address": "Thomondgate, Limerick, Ireland", "latitude": 52.671646, "longitude": -8.635304999999999, "rating": 4.3, "county": "Limerick"}, {"name": "Limerick Service Station", "address": "Ennis Road, Limerick, V94 HN3X, Ireland", "latitude": 52.6700905, "longitude": -8.6573874, "rating": 0, "county": "Limerick"}, {"name": "Maxol Service Station Dooradoyle", "address": "St Nessan's Rd, Dooradoyle, Limerick, V94 FF6F, Ireland", "latitude": 52.6330269, "longitude": -8.6564541, "rating": 4.2, "county": "Limerick"}, {"name": "Circle K", "address": "Mount Kennett Pl, Dock Rd, Limerick, Ireland", "latitude": 52.6601875, "longitude": -8.6351233, "rating": 3.7, "county": "Limerick"}, {"name": "Circle k", "address": "Ambassador Centre, Dooradoyle, Limerick, Ireland", "latitude": 52.6367507, "longitude": -8.6541806, "rating": 4.4, "county": "Limerick"}, {"name": "Top Oil Lock Quay Service Station", "address": "1-5 Clare St, Limerick, V94 CFA4, Ireland", "latitude": 52.666425, "longitude": -8.6173377, "rating": 4.1, "county": "Limerick"}, {"name": "Circle K Express", "address": "Dock Rd, Limerick, Ireland", "latitude": 52.6559701, "longitude": -8.6469963, "rating": 3, "county": "Limerick"}, {"name": "Circle K", "address": "Corbally Rd, Corbally, Limerick, V94 VPN8, Ireland", "latitude": 52.6707749, "longitude": -8.6164261, "rating": 4.6, "county": "Limerick"}, {"name": "Topaz R509", "address": "Limerick, Ireland", "latitude": 52.6488865, "longitude": -8.6176927, "rating": 4.3, "county": "Limerick"}, {"name": "Emo", "address": "Raheen Business Park Limerick Q, Ireland", "latitude": 52.61653099999999, "longitude": -8.66277, "rating": 0, "county": "Limerick"}, {"name": "Top Oil Dock Road Service Station", "address": "Dock Rd, Limerick, V94 PA4C, Ireland", "latitude": 52.6529708, "longitude": -8.6553953, "rating": 4.2, "county": "Limerick"}, {"name": "Inver", "address": "Ballysimon Rd, Limerick, V94 RD8E, Ireland", "latitude": 52.6565372, "longitude": -8.6074913, "rating": 4.2, "county": "Limerick"}, {"name": "Circle K", "address": "Roxboro Road, Limerick, V94 WFX2, Ireland", "latitude": 52.6488427, "longitude": -8.6177995, "rating": 4.1, "county": "Limerick"}, {"name": "Topaz", "address": "Dooradoyle, Limerick, Ireland", "latitude": 52.6366869, "longitude": -8.654221999999999, "rating": 4.1, "county": "Limerick"}, {"name": "Circle K", "address": "Caherdavin, Limerick, V94 TX8Y, Ireland", "latitude": 52.6718884, "longitude": -8.665203, "rating": 3.1, "county": "Limerick"}, {"name": "Applegreen", "address": "Coonagh Cross Shopping Centre, Ennis Rd, Knock, Cork, Co. Limerick, V94 PR8H, Ireland", "latitude": 52.67505310000001, "longitude": -8.6781429, "rating": 4.2, "county": "Limerick"}, {"name": "Certa", "address": "Dublin Rd, Limerick, V94 YPD2, Ireland", "latitude": 52.6646714, "longitude": -8.6082162, "rating": 4.4, "county": "Limerick"}, {"name": "Certa", "address": "Coonagh Cross Shopping Centre, Ennis Rd, Coonagh, Limerick, V94 YC1H, Ireland", "latitude": 52.6751339, "longitude": -8.6745928, "rating": 3.5, "county": "Limerick"}, {"name": "Maxol Service Station Singland", "address": "Dublin Rd, Reboge Meadows, Limerick, V94 89V9, Ireland", "latitude": 52.665141, "longitude": -8.582335, "rating": 4.4, "county": "Limerick"}, {"name": "Top Oil Raheen Service Station", "address": "Baunacloka, Limerick, V94 CFY5, Ireland", "latitude": 52.62665750000001, "longitude": -8.6643366, "rating": 3.9, "county": "Limerick"}, {"name": "Inver", "address": "Punches Cross, Ballinacurra, Limerick, V94 KV56, Ireland", "latitude": 52.6490136, "longitude": -8.6375412, "rating": 4.4, "county": "Limerick"}, {"name": "Campus", "address": "Dublin Rd, Limerick, Ireland", "latitude": 52.6647079, "longitude": -8.608303099999999, "rating": 0, "county": "Limerick"}, {"name": "Inver", "address": "Ennis Rd, Limerick, V94 FY63, Ireland", "latitude": 52.6685508, "longitude": -8.6524022, "rating": 0, "county": "Limerick"}, {"name": "Inver Mughal's Larkins Cross Service Station Corbally", "address": "Corbally Rd, Cloonoughter, Limerick, Co. Clare, Ireland", "latitude": 52.689411, "longitude": -8.6033591, "rating": 4.5, "county": "Limerick"}, {"name": "Tara Oil", "address": "Dock Rd, Ballykeeffe, Limerick, Ireland", "latitude": 52.6491816, "longitude": -8.664182, "rating": 4.4, "county": "Limerick"}, {"name": "H2 Roxboro", "address": "Roxboro Road, R511, Limerick, V94 ND3A, Ireland", "latitude": 52.65068729999999, "longitude": -8.615814199999999, "rating": 4.3, "county": "Limerick"}, {"name": "Maxol", "address": "Killonan, Limerick, Ireland", "latitude": 52.6532144, "longitude": -8.5433524, "rating": 4.7, "county": "Limerick"}, {"name": "Emo Fuelcard Site - Sercom", "address": "Raheen Industrial Estate, Limerick, V94 N72W, Ireland", "latitude": 52.6164254, "longitude": -8.6637566, "rating": 2, "county": "Limerick"}, {"name": "Maxol R526", "address": "Gouldavoher, Limerick, Ireland", "latitude": 52.6328991, "longitude": -8.656890599999999, "rating": 5, "county": "Limerick"}, {"name": "Maxol Service Station Castletroy", "address": "Dublin Rd, Castletroy, Limerick, V94 621F, Ireland", "latitude": 52.6674219, "longitude": -8.552365199999999, "rating": 4.3, "county": "Limerick"}, {"name": "Inver Old Cork Road", "address": "Kilmallock Rd, Crossagalla, Limerick, Ireland", "latitude": 52.6441775, "longitude": -8.5895826, "rating": 4.3, "county": "Limerick"}, {"name": "Applegreen", "address": "Newtown Rd, Killonan, Castletroy, Co. Limerick, V94 T9WF, Ireland", "latitude": 52.6532444, "longitude": -8.5432767, "rating": 4.5, "county": "Limerick"}, {"name": "Stacja \u0141adowania", "address": "R527, Co. Limerick, Ireland", "latitude": 52.6526746, "longitude": -8.5933082, "rating": 5, "county": "Limerick"}, {"name": "Top R526", "address": "Baunacloka, Limerick, Ireland", "latitude": 52.6264778, "longitude": -8.664698999999999, "rating": 2.5, "county": "Limerick"}, {"name": "Applegreen", "address": "Shannon Banks, Athlunkard, Limerick, V94 E37F, Ireland", "latitude": 52.6842074, "longitude": -8.6064846, "rating": 4.3, "county": "Limerick"}, {"name": "Amber Moyross", "address": "Moyross, Limerick, Ireland", "latitude": 52.6786106, "longitude": -8.6377484, "rating": 3.7, "county": "Limerick"}, {"name": "inver spar Gleeson", "address": "Castletroy, Limerick, Ireland", "latitude": 52.6678373, "longitude": -8.5568993, "rating": 4.6, "county": "Limerick"}, {"name": "Inver Limerick", "address": "Kilmallock Rd, Crossagalla, Limerick, Ireland", "latitude": 52.6443105, "longitude": -8.5896143, "rating": 4, "county": "Limerick"}, {"name": "SPAR and Petrol Punch's Cross", "address": "Ballinacurra Rd, Limerick, Ireland", "latitude": 52.6492154, "longitude": -8.63739, "rating": 3.7, "county": "Limerick"}, {"name": "Circle K", "address": "Dublin Road, Castletroy, Co. Limerick, Ireland", "latitude": 52.6649979, "longitude": -8.5815711, "rating": 3.7, "county": "Limerick"}, {"name": "Shreelawn Oil", "address": "Limerick, Ireland", "latitude": 52.6563266, "longitude": -8.6479122, "rating": 4.7, "county": "Limerick"}, {"name": "Maxol Service Station Garryowen", "address": "Dublin Rd, Garryowen, Co. Limerick, V94 PH4X, Ireland", "latitude": 52.664337, "longitude": -8.6013111, "rating": 4.4, "county": "Limerick"}, {"name": "Circle K Centra", "address": "Ballybrown, Clarina Village, Co. Limerick, V94 PTD2, Ireland", "latitude": 52.6321893, "longitude": -8.730671899999999, "rating": 4.1, "county": "Limerick"}, {"name": "Fine Wines", "address": "Cosgrave Garage, Dublin Rd, Reboge Meadows, Castletroy, Co. Limerick, V94 FD0H, Ireland", "latitude": 52.6653943, "longitude": -8.5820391, "rating": 3.8, "county": "Limerick"}, {"name": "galtee fuels", "address": "Reboge Meadows, Limerick, Ireland", "latitude": 52.6648175, "longitude": -8.5817331, "rating": 0, "county": "Limerick"}, {"name": "Inver Ballysimon", "address": "Ballysimon Service Station, Boher, Ballysimon, Co. Limerick, V94 RD8E, Ireland", "latitude": 52.620906, "longitude": -8.486388, "rating": 4, "county": "Limerick"}, {"name": "Hodkinson's Centra", "address": "Main St, Barnakyle, Patrickswell, Co. Limerick, V94 F8EH, Ireland", "latitude": 52.5977189, "longitude": -8.708372299999999, "rating": 4, "county": "Limerick"}, {"name": "O'Neill Service Station", "address": "Ballybrown, Wexford, Co. Limerick, Ireland", "latitude": 52.6323433, "longitude": -8.730713699999999, "rating": 0, "county": "Limerick"}, {"name": "Circle K Patrickswell McDermott's", "address": "Main St, Barnakyle, Patrickswell, Co. Limerick, Ireland", "latitude": 52.5967381, "longitude": -8.7103479, "rating": 4.5, "county": "Limerick"}, {"name": "Elm Court Service Station Ltd", "address": "Knockbrien, Ballyneety, Co. Limerick, V94 K6XE, Ireland", "latitude": 52.5969895, "longitude": -8.548576299999999, "rating": 5, "county": "Limerick"}, {"name": "Inver", "address": "Knockbrien, Ballyneety, Co. Limerick, V94 K6XE, Ireland", "latitude": 52.5969053, "longitude": -8.5486595, "rating": 4.2, "county": "Limerick"}, {"name": "Barron's Raheen", "address": "Raheen Service Station, Raheen, Limerick, Ireland", "latitude": 52.6265733, "longitude": -8.6641494, "rating": 4.4, "county": "Limerick"}, {"name": "Top", "address": "Friarstown, Co. Limerick, Ireland", "latitude": 52.5622392, "longitude": -8.5399721, "rating": 4.4, "county": "Limerick"}, {"name": "Topaz", "address": "Main St, Hundredacres East, Caherconlish, Co. Limerick, Ireland", "latitude": 52.5933672, "longitude": -8.4722258, "rating": 4, "county": "Limerick"}, {"name": "Maxol Lee's", "address": "Coolreiry, Castleconnell, Co. Limerick, Ireland", "latitude": 52.7095518, "longitude": -8.4902543, "rating": 4.5, "county": "Limerick"}, {"name": "Centra Clarina", "address": "Ballybrown, Clarina Village, Co. Limerick, V94 PTD2, Ireland", "latitude": 52.6321657, "longitude": -8.730668999999999, "rating": 4, "county": "Limerick"}, {"name": "Maxol Service Station, Mulcair's", "address": "Main Street, Kildimo, Kildimo New, Co. Limerick, Ireland", "latitude": 52.6230646, "longitude": -8.809983899999999, "rating": 4.4, "county": "Limerick"}]