[{"name": "Emo", "address": "Townparks, Longford, Ireland", "latitude": 53.72667, "longitude": -7.80843, "rating": 4.4, "county": "Longford"}, {"name": "Mc Graths, Centra, Texaco R198", "address": "Aughadegnan, Co. Longford, Ireland", "latitude": 53.74245999999999, "longitude": -7.802159999999999, "rating": 4.6, "county": "Longford"}, {"name": "Texaco", "address": "Longford, Ardnacassagh, Longford, Ireland", "latitude": 53.7245733, "longitude": -7.784244599999999, "rating": 4.3, "county": "Longford"}, {"name": "Hanlon's Gala Service Station", "address": "Leader Park, Glack, Longford, N39 F6T0, Ireland", "latitude": 53.72501690000001, "longitude": -7.789039400000001, "rating": 4.4, "county": "Longford"}, {"name": "Byrnes Circle K", "address": "Longford, Lisbrack, Longford, Ireland", "latitude": 53.7386631, "longitude": -7.8019606, "rating": 4.3, "county": "Longford"}, {"name": "Inver", "address": "Athlone Road, Townparks, Longford, N39 P8P0, Ireland", "latitude": 53.7240468, "longitude": -7.8056881, "rating": 4.4, "county": "Longford"}, {"name": "Applegreen", "address": "Teffia Park, Glack, Longford, Ireland", "latitude": 53.7251553, "longitude": -7.789589799999999, "rating": 5, "county": "Longford"}, {"name": "Corrib Oil Home Heating Oil Depot Longford", "address": "Flancare Business Park, Athlone Road, Farranyoogan, Longford, Ireland", "latitude": 53.7222498, "longitude": -7.8164368, "rating": 4.3, "county": "Longford"}, {"name": "Payless Fuels", "address": "Cartronageeragh Business Park, Farranyoogan, Co. Longford, Ireland", "latitude": 53.7149425, "longitude": -7.818519699999999, "rating": 0, "county": "Longford"}, {"name": "Top Oil Longford Service Station", "address": "R397 Stonepark Ballymahon Road, Stonepark, Co. Longford, N39 VN53, Ireland", "latitude": 53.69771369999999, "longitude": -7.821488599999999, "rating": 4.4, "county": "Longford"}, {"name": "Centra Longford Town McGraths Texaco", "address": "McGraths Texaco Sligo Road, Co. Longford, N39 R2C6, Ireland", "latitude": 53.742523, "longitude": -7.802530000000001, "rating": 4.6, "county": "Longford"}, {"name": "Centra Dublin Road, Raleigh", "address": "Dublin Rd, Ardnacassagh, Longford, N39 NV60, Ireland", "latitude": 53.724518, "longitude": -7.784259, "rating": 3.8, "county": "Longford"}, {"name": "Emo Oil - Whitney's Filling Station", "address": "Mary Street Granard Road, Drumlish, Co. Longford, Ireland", "latitude": 53.82139220000001, "longitude": -7.766271299999999, "rating": 3, "county": "Longford"}, {"name": "Circle K", "address": "Ballymahon, Co. Longford, Ireland", "latitude": 53.56699, "longitude": -7.76942, "rating": 4.4, "county": "Longford"}, {"name": "Emo R198", "address": "Drumlish, Co. Longford, Ireland", "latitude": 53.82143749999999, "longitude": -7.766502099999999, "rating": 3.8, "county": "Longford"}, {"name": "Quinns Service Station", "address": "N55, Carrickboy, Co. Longford, Ireland", "latitude": 53.6321746, "longitude": -7.686518299999999, "rating": 5, "county": "Longford"}, {"name": "Emo - Daybreak", "address": "Longford Rd, Tinnynarr, Edgeworthstown, Co. Longford, N39 K4V8, Ireland", "latitude": 53.6975099, "longitude": -7.6149112, "rating": 0, "county": "Longford"}, {"name": "WHYTES", "address": "Smithfield, Co. Longford, Ireland", "latitude": 53.622383, "longitude": -7.632123499999999, "rating": 5, "county": "Longford"}, {"name": "Maxol Service Station Ballymahon", "address": "Athlone Rd, Creevagh Beg, Rathmore, Co. Longford, N39 KH95, Ireland", "latitude": 53.5607252, "longitude": -7.762470700000001, "rating": 4.5, "county": "Longford"}, {"name": "Casserlys Spar", "address": "R392 Clonflower, Lanesborough, Co. Longford, N39 Y2A3, Ireland", "latitude": 53.66999610000001, "longitude": -7.983507299999999, "rating": 4.6, "county": "Longford"}, {"name": "Independent", "address": "Lisnagrish, Edgeworthstown, Co. Longford, Ireland", "latitude": 53.6838637, "longitude": -7.5834364, "rating": 4.5, "county": "Longford"}, {"name": "Top Oil Macken Service Station", "address": "Barrack St, Rathcronan, Granard, Co. Longford, N39 H2X0, Ireland", "latitude": 53.7798923, "longitude": -7.4885107, "rating": 4.2, "county": "Longford"}, {"name": "Top Oil Ballinalee Fox's Gala", "address": "River Cres, Ballinalee, Co. Longford, N39 K5K2, Ireland", "latitude": 53.7765115, "longitude": -7.657464800000001, "rating": 4.3, "county": "Longford"}]