[{"name": "AS24", "address": "M1, Whiterath, Co. Louth, Ireland", "latitude": 53.9315013, "longitude": -6.416692500000001, "rating": 4}, {"name": "Go Petrol Station", "address": "Newry Rd, Lisdoo, Co. Louth, Ireland", "latitude": 54.0150934, "longitude": -6.399776, "rating": 4.2}, {"name": "Applegreen", "address": "M1, Whiterath, Southbound, Co. Louth, A91 A3PH, Ireland", "latitude": 53.9316987, "longitude": -6.4163665, "rating": 4.3}, {"name": "PJS", "address": "Ballykelly, Dundalk, Co. Louth, A91 W2CE, Ireland", "latitude": 53.9687169, "longitude": -6.5714453, "rating": 0}, {"name": "Kells Road Service Station", "address": "20 Jervis St, Ardee, Co. Louth, Ireland", "latitude": 53.8547656, "longitude": -6.543556199999999, "rating": 4.2}, {"name": "Maxol Service Station Dublin Road, Dundalk", "address": "Dublin Rd, Marshes Upper, Dundalk, Co. Louth, A91 HDK0, Ireland", "latitude": 53.9816618, "longitude": -6.3950358, "rating": 4.3}, {"name": "Maxol Service Station Seaview", "address": "Avenue Rd, Marshes Lower, Dundalk, Co. Louth, A91 N9WP, Ireland", "latitude": 53.9941502, "longitude": -6.3840401, "rating": 4}, {"name": "Circle K Oriel", "address": "Dublin Rd, Priorland, Dundalk, Co. Louth, Ireland", "latitude": 53.9883546, "longitude": -6.3985334, "rating": 4.1}, {"name": "Castlebellingham Petrol Station", "address": "Dundalk Rd, Castlebellingham, Co. Louth, Ireland", "latitude": 53.89982699999999, "longitude": -6.3895979, "rating": 4.1}, {"name": "Greenmount Emo Oil Service Station", "address": "R132, Greenmount, Co. Louth, Ireland", "latitude": 53.8693453, "longitude": -6.392515299999999, "rating": 4.1}, {"name": "Certa", "address": "P\u00e1irc Na nGael, The Ramparts, Marshes Lower, Dundalk, Co. Louth, Ireland", "latitude": 53.99802200000001, "longitude": -6.4030835, "rating": 4}, {"name": "Circle K", "address": "Dublin Rd, Haggardstown, Dundalk, Co. Louth, Ireland", "latitude": 53.9694368, "longitude": -6.3892213, "rating": 4.5}, {"name": "Texaco Service Station", "address": "Carrick Rd, Cappocksgreen, Ardee, Co. Louth, Ireland", "latitude": 53.863376, "longitude": -6.5427003, "rating": 4.3}, {"name": "Top Oil Apple Red Service Station", "address": "N2 Dublin Road, Mullameelan, Ardee, Co. Louth, A92 E8HF, Ireland", "latitude": 53.8443564, "longitude": -6.5393972, "rating": 4.4}, {"name": "Top Oil MSA Dundalk East", "address": "Truck Stop, M1, Whiterath, Dromiskin, Co. Louth, A91 A3PH, Ireland", "latitude": 53.9231707, "longitude": -6.412548699999999, "rating": 5}, {"name": "Lisdoo Service Station", "address": "2 Newry Rd, Lisdoo, Dundalk, Co. Louth, A91 K3V7, Ireland", "latitude": 54.01580610000001, "longitude": -6.3997156, "rating": 4.4}, {"name": "Top Oil Carrickmacross Road Dundalk", "address": "Carrickmacross Road, Dundalk, Co. Louth, Ireland", "latitude": 53.9999358, "longitude": -6.415305699999999, "rating": 4.5}, {"name": "Finlay's Fuel", "address": "Cappocksgreen, Co. Louth, Ireland", "latitude": 53.8606923, "longitude": -6.5389, "rating": 4}, {"name": "Campus Oil", "address": "Dundalk Rd, Castlebellingham, Co. Louth, Ireland", "latitude": 53.8998248, "longitude": -6.3895984, "rating": 0}, {"name": "Circle K", "address": "Dublin Road, Mulladrillen, Ardee, Co. Louth, Ireland", "latitude": 53.8503819, "longitude": -6.5388839, "rating": 4.3}, {"name": "Spar Supermarket Service Station", "address": "Carrickmacross Rd, R178, Dundalk, A91 YYD3, Ireland", "latitude": 53.99990709999999, "longitude": -6.416140100000001, "rating": 4.1}, {"name": "Tesco", "address": "Dublin Rd, Marshes Lower, Dundalk, Co. Louth, A91 F8W7, Ireland", "latitude": 53.99801, "longitude": -6.402753100000001, "rating": 5}, {"name": "Great Gas", "address": "Bellurgan, Co. Louth, Ireland", "latitude": 54.0151534, "longitude": -6.3195923, "rating": 4.7}, {"name": "Circle K", "address": "R173, Aghaboys, Co. Louth, Ireland", "latitude": 54.0344071, "longitude": -6.374051000000001, "rating": 4.1}, {"name": "Applegreen Dromiskin", "address": "Whiterath, Dromiskin, Co. Louth, A91 A3PH, Ireland", "latitude": 53.92352690000001, "longitude": -6.4119794, "rating": 4.3}, {"name": "Top Oil Ardee Service Station", "address": "Ferdia Street, Mulladrillen, Ardee, Co. Louth, A92 EY73, Ireland", "latitude": 53.854768, "longitude": -6.543546200000001, "rating": 4.6}, {"name": "Flanagnas Service Station", "address": "Dublin Rd, Haggardstown, Dundalk, Co. Louth, Ireland", "latitude": 53.9692275, "longitude": -6.3891105, "rating": 4}, {"name": "Brian Malone Fuels Limited", "address": "Drogheda Rd, Mulladrillen, Ardee, Co. Louth, Ireland", "latitude": 53.8503633, "longitude": -6.5388978, "rating": 5}, {"name": "Applegreen", "address": "Marshes Upper, Dundalk, Co. Louth, Ireland", "latitude": 53.9871468, "longitude": -6.3777797, "rating": 4.3}, {"name": "Top Chapel Road", "address": "Dromiskin, Co. Louth, Ireland", "latitude": 53.92174, "longitude": -6.40085, "rating": 5}, {"name": "Top Oil Newry Road Service Station", "address": "Newry Rd, Lisdoo, Dundalk, Co. Louth, A91 CFR6, Ireland", "latitude": 54.01578, "longitude": -6.3997388, "rating": 3.5}, {"name": "Emo Oil - Dundalk Truckstop (HGV)", "address": "Coes Road Industrial Estate, Marshes Lower, Dundalk, Co. Louth, Ireland", "latitude": 54.002126, "longitude": -6.385146, "rating": 4.1}, {"name": "Carrick Road Service Station", "address": "Ardee, Cappocksgreen, Ardee, Co. Louth, Ireland", "latitude": 53.8633774, "longitude": -6.542578799999999, "rating": 5}, {"name": "Dromiskin Petrol Station", "address": "Dromiskin, Co. Louth, Ireland", "latitude": 53.9215672, "longitude": -6.400874000000001, "rating": 4.8}, {"name": "Castlebellingham South", "address": "Dundalk, Demesne, Dundalk, Co. Louth, A91 YYD3, Ireland", "latitude": 53.999904, "longitude": -6.4161229, "rating": 3.7}, {"name": "Maxol Townparks", "address": "Castletown Rd, Moorland, Dundalk, Co. Louth, A91 NHP5, Ireland", "latitude": 54.0141153, "longitude": -6.416871400000001, "rating": 3.8}, {"name": "Top Oil Bellurgan Service Station", "address": "New Rd, Bellurgan, Dundalk, Co. Louth, A91 PF9K, Ireland", "latitude": 54.0151664, "longitude": -6.3204559, "rating": 1}, {"name": "Applegreen", "address": "R178, Demesne, Dundalk, Co. Louth, Ireland", "latitude": 53.9998769, "longitude": -6.4160906, "rating": 4}, {"name": "Top Oil Ravendale Service Station", "address": "Broughattin, Ravensdale, Co. Louth, A91 PR2H, Ireland", "latitude": 54.0498268, "longitude": -6.3436507, "rating": 4.6}, {"name": "Emo Oil - Gartlan's Filling Station", "address": "Lannat, Carrickmacross, Co. Monaghan, Ireland", "latitude": 53.95916279999999, "longitude": -6.6411076, "rating": 5}, {"name": "Ferdia Service Station", "address": "Mullameelan, Ardee, Co. Louth, Ireland", "latitude": 53.84435999999999, "longitude": -6.5393944, "rating": 0}, {"name": "Londis Bellurgan", "address": "Bellurgan Service Station, New Rd, Bellurgan, Dundalk, Co. Louth, Ireland", "latitude": 54.015122, "longitude": -6.320590999999999, "rating": 4.2}, {"name": "McCloskey Fuels Service Station", "address": "Ardee Street, N2, Collon, A92 WV67, Ireland", "latitude": 53.7801676, "longitude": -6.487207799999999, "rating": 4.1}, {"name": "Texaco Service Station", "address": "Brookville Service Station, Ardee Rd, Cambrickville, Dundalk, Co. Louth, Ireland", "latitude": 53.9950935, "longitude": -6.4173958, "rating": 4}, {"name": "Emo Oil Dundalk", "address": "Coes Rd, Marshes Lower, Dundalk, Co. Louth, Ireland", "latitude": 54.00226199999999, "longitude": -6.384120999999999, "rating": 3.5}, {"name": "Circle K Dundalk Road", "address": "Dundalk Rd, Mountaintown, Dunleer, Co. Louth, Ireland", "latitude": 53.8352973, "longitude": -6.3941029, "rating": 3.8}, {"name": "Top Oil Tenure Service Station", "address": "Tenure Stores, Tinure, Dunleer, Co. Louth, A92 RD73, Ireland", "latitude": 53.7906828, "longitude": -6.4204027, "rating": 5}, {"name": "Seamus Murphy & Sons", "address": "Riverstown, Co. Louth, Ireland", "latitude": 53.99917110000001, "longitude": -6.1933998, "rating": 4.8}, {"name": "Top Oil Carrickmacross Tir Chonail Service Station", "address": "Ardee Rd, Drummond Otra, Carrickmacross, Co. Monaghan, A81 KD30, Ireland", "latitude": 53.9666405, "longitude": -6.713839699999999, "rating": 4.4}, {"name": "Circle K Express Mell", "address": "Mell, Drogheda, Co. Louth, A92 XW3K, Ireland", "latitude": 53.71818829999999, "longitude": -6.3642569, "rating": 4.3}, {"name": "Eurospar (Cloughvalley Stores)", "address": "20 Castleblaney Rd, Cloghvally Upper, Carrickmacross, Co. Monaghan, A81 FW58, Ireland", "latitude": 53.9803825, "longitude": -6.717284299999999, "rating": 4.3}, {"name": "Emo Oil - McGovern's Garage", "address": "Killineer, Drogheda, Co. Louth, A92 HRT7, Ireland", "latitude": 53.7451441, "longitude": -6.3816975, "rating": 4}, {"name": "Circle K & XL (Cassidy Statoil Filling Station)", "address": "10 Drummond Radhairc, Drummond Otra, Co. Monaghan, Ireland", "latitude": 53.9689595, "longitude": -6.700728499999999, "rating": 3.3}, {"name": "Silverstream Service Station", "address": "2 Cluain Na Mara, Knocknagoran, Omeath, Co. Louth, A91 P58C, Ireland", "latitude": 54.0889367, "longitude": -6.2598816, "rating": 0}, {"name": "Applegreen", "address": "Newry Rd, Townparks, Dundalk, Co. Louth, A91 C6DC, Ireland", "latitude": 54.01366969999999, "longitude": -6.4017941, "rating": 4.3}, {"name": "Top Oil MSA Dundalk West Service Station", "address": "Motorway Truck Stop, Dundalk West, Commons, Dundalk, Co. Louth, K45 KD89, Ireland", "latitude": 53.9312374, "longitude": -6.4169719, "rating": 0}, {"name": "Top Oil Tain Stores Omeath Service Station", "address": "Main St The Crossroads, Omeath, A91 F2VX, Ireland", "latitude": 54.0873703, "longitude": -6.2583913, "rating": 3.8}, {"name": "Maxol Service Station Ballymakenny Road", "address": "Ballymakenny Rd, Drogheda, Co. Louth, A92 TKW0, Ireland", "latitude": 53.7227192, "longitude": -6.3481931, "rating": 4.1}, {"name": "Top Oil Cloughvalley Stores", "address": "Castleblayney Road, Cloghvally Upper, Carrickmacross, Co. Monaghan, A81 TW99, Ireland", "latitude": 53.9805342, "longitude": -6.7177089, "rating": 5}, {"name": "Euro Fuels", "address": "Cornamucklagh, Co. Louth, Ireland", "latitude": 54.1092002, "longitude": -6.2868558, "rating": 4}]