[{"name": "Roches Filling Station", "address": "Main St, Balla, Co. Mayo, Ireland", "latitude": 53.8053302, "longitude": -9.1309006, "rating": 0, "county": "Mayo"}, {"name": "Topaz", "address": "Main St, Balla, Co. Mayo, Ireland", "latitude": 53.8053302, "longitude": -9.1309006, "rating": 0, "county": "Mayo"}, {"name": "Top Oil Claremorris Service Station", "address": "N17, Lisduff, Co. Mayo, F12 F6K2, Ireland", "latitude": 53.7026376, "longitude": -8.9799013, "rating": 4.3, "county": "Mayo"}, {"name": "Topaz", "address": "Aiden St, Corrahoor, Co. Mayo, Ireland", "latitude": 53.8537725, "longitude": -8.995174200000001, "rating": 0, "county": "Mayo"}, {"name": "Corrib Oil Castlebar Petrol Station", "address": "Humbert Way, Ring Road, Curragh, Castlebar, Co. Mayo, F23 Y673, Ireland", "latitude": 53.84839479999999, "longitude": -9.3017671, "rating": 4.5, "county": "Mayo"}, {"name": "Hillside Service Statiion", "address": "83 Ballyhaunis Rd, Clare, Claremorris, Co. Mayo, F12 P6R3, Ireland", "latitude": 53.7219045, "longitude": -8.992671099999999, "rating": 4.7, "county": "Mayo"}, {"name": "Applegreen Service Station, Daybreak Claremorris", "address": "Ballyhaunis Rd, Clare, Claremorris, Co. Mayo, Ireland", "latitude": 53.7207083, "longitude": -8.997283999999999, "rating": 4.5, "county": "Mayo"}, {"name": "Suttons Oil Limited", "address": "Station Rd, Clare, Claremorris, Co. Mayo, Ireland", "latitude": 53.7204136, "longitude": -9.0014453, "rating": 0, "county": "Mayo"}, {"name": "Top Oil Moneen Service Station", "address": "Moneen Industrial Estate, Moneen Rd, Moneenbradagh, Castlebar, Co. Mayo, F23 H243, Ireland", "latitude": 53.8561522, "longitude": -9.2798948, "rating": 4.2, "county": "Mayo"}, {"name": "Maxol", "address": "Spencer Park, Gorteendrunagh, Castlebar, Co. Mayo, F23 XR83, Ireland", "latitude": 53.8511816, "longitude": -9.292696399999999, "rating": 0, "county": "Mayo"}, {"name": "Tesco Petrol", "address": "Silverbridge Shopping Centre, Old Knock Road, Clare, Claremorris, Co. Mayo, Ireland", "latitude": 53.7244551, "longitude": -8.998602, "rating": 4.1, "county": "Mayo"}, {"name": "Claremorris top", "address": "Co., Claremorris, Co. Mayo, Ireland", "latitude": 53.7077732, "longitude": -8.9774574, "rating": 0, "county": "Mayo"}, {"name": "Circle K Kiltimagh", "address": "Aiden St, Corrahoor, Co. Mayo, Ireland", "latitude": 53.85373310000001, "longitude": -8.9951908, "rating": 4.9, "county": "Mayo"}, {"name": "Tommy Robinson Limited", "address": "Spencer St, Gorteendrunagh, Castlebar, Co. Mayo, F23 PD88, Ireland", "latitude": 53.8537457, "longitude": -9.2936423, "rating": 4.6, "county": "Mayo"}, {"name": "Top Oil Ballyhean Service Station", "address": "N84, Cunnaker, Ballyhean, Co. Mayo, F23 F978, Ireland", "latitude": 53.7949917, "longitude": -9.314906299999999, "rating": 5, "county": "Mayo"}, {"name": "Texaco Kiltimagh, K Brothers Day Today Shop", "address": "Knock Rd, Gowelboy, Kiltimagh, Co. Mayo, Ireland", "latitude": 53.8472336, "longitude": -8.9950445, "rating": 4.6, "county": "Mayo"}, {"name": "Stauntons XL", "address": "Castlebar, Cunnaker, Ballyheane, Co. Mayo, Ireland", "latitude": 53.794988, "longitude": -9.314913899999999, "rating": 4.1, "county": "Mayo"}, {"name": "Emo Ballinrobe", "address": "Bowgate St, Knockfereen, Ballinrobe, Co. Mayo, F31 X640, Ireland", "latitude": 53.6206304, "longitude": -9.2225781, "rating": 4.5, "county": "Mayo"}, {"name": "Circle K", "address": "Bowgate St, Knockfereen, Ballinrobe, Co. Mayo, Ireland", "latitude": 53.6211327, "longitude": -9.223391999999999, "rating": 0, "county": "Mayo"}, {"name": "Duffys Service Station", "address": "L1719, Castlebar, Co. Mayo, Ireland", "latitude": 53.863575, "longitude": -9.2956643, "rating": 4.9, "county": "Mayo"}, {"name": "Circle K", "address": "New Ring Road, Castlebar, Co. Mayo, Ireland", "latitude": 53.848321, "longitude": -9.301627, "rating": 4, "county": "Mayo"}, {"name": "Topaz Corrib Oil", "address": "Devlis, Friarsground, Co. Mayo, Ireland", "latitude": 53.7612907, "longitude": -8.7574468, "rating": 3, "county": "Mayo"}, {"name": "Topaz", "address": "New Ring Road, Castlebar, Co. Mayo, Ireland", "latitude": 53.848321, "longitude": -9.301627, "rating": 0, "county": "Mayo"}, {"name": "Texaco Ballindine", "address": "Ballindine East, Co. Mayo, F12 P8H1, Ireland", "latitude": 53.6677206, "longitude": -8.956164099999999, "rating": 4.5, "county": "Mayo"}, {"name": "Emo", "address": "Coolnaha South, Co. Mayo, Ireland", "latitude": 53.8015468, "longitude": -8.7719719, "rating": 4.7, "county": "Mayo"}, {"name": "Maxol Service Station, Duffy's", "address": "Spencer Park, Gorteendrunagh, Castlebar, Co. Mayo, Ireland", "latitude": 53.85129449999999, "longitude": -9.2927917, "rating": 4.6, "county": "Mayo"}, {"name": "Emo Ballintubber", "address": "Killavally Road Ballintubber, Claremorris, Co. Mayo, Ireland", "latitude": 53.761553, "longitude": -9.304867999999999, "rating": 4.9, "county": "Mayo"}, {"name": "Top Oil Ballinrobe Service Station Mace", "address": "Castlebar Road, Rathkelly, Ballinrobe, Co. Mayo, F31 YD32, Ireland", "latitude": 53.629724, "longitude": -9.231957399999999, "rating": 4.5, "county": "Mayo"}, {"name": "Maxol Service Station Ballindine", "address": "Claremorris Road, Ballindine North, Ballindine, Co. Mayo, F12 K5F1, Ireland", "latitude": 53.6717812, "longitude": -8.960098799999999, "rating": 4.4, "county": "Mayo"}, {"name": "Topaz N26", "address": "36 Rathdubh, Kilbride, Swinford, Co. Mayo, F12 KP27, Ireland", "latitude": 53.94256859999999, "longitude": -8.9378567, "rating": 4.3, "county": "Mayo"}, {"name": "Circle K Castlebar Londis", "address": "Drumconlan, Castlebar, Co. Mayo, Ireland", "latitude": 53.8501069, "longitude": -9.2804009, "rating": 4.3, "county": "Mayo"}, {"name": "Reape's N26", "address": "Foxford, Co. Mayo, Ireland", "latitude": 53.9812514, "longitude": -9.110466599999999, "rating": 4, "county": "Mayo"}, {"name": "Certa", "address": "Kilcolman Road, Clare, Claremorris, Co. Mayo, Ireland", "latitude": 53.7244318, "longitude": -8.9985813, "rating": 4.3, "county": "Mayo"}, {"name": "KJ Fahey's", "address": "Hollymount Demesne, Hollymount, Co. Mayo, F12 FD80, Ireland", "latitude": 53.6611882, "longitude": -9.1186287, "rating": 4.5, "county": "Mayo"}, {"name": "Applegreen", "address": "Ballina Rd, Belass, Foxford, Co. Mayo, F26 R2D5, Ireland", "latitude": 53.9874532, "longitude": -9.1201131, "rating": 4.2, "county": "Mayo"}, {"name": "Inver", "address": "Bellavary, Co. Mayo, F23 E865, Ireland", "latitude": 53.8956147, "longitude": -9.1469544, "rating": 4.1, "county": "Mayo"}, {"name": "Cunniffes", "address": "Bridge St, Kilkelly, Co. Mayo, Ireland", "latitude": 53.8707278, "longitude": -8.850131, "rating": 4.7, "county": "Mayo"}, {"name": "Corrib Oil Ballinrobe Petrol Station", "address": "Neale Rd, Knockfereen, Ballinrobe, Co. Mayo, Ireland", "latitude": 53.6163623, "longitude": -9.2228529, "rating": 4.5, "county": "Mayo"}, {"name": "Corrib Oil Swinford Petrol Station", "address": "N26, Kilbride, Swinford, Co. Mayo, Ireland", "latitude": 53.94233089999999, "longitude": -8.9378655, "rating": 4.2, "county": "Mayo"}, {"name": "Gavaghans Filling Station & Mace", "address": "Mill Street, Swinford, Co. Mayo, Ireland", "latitude": 53.9450838, "longitude": -8.952055, "rating": 3, "county": "Mayo"}, {"name": "Applegreen Swinford", "address": "Carrowbaun, Co. Mayo, Ireland", "latitude": 53.92558349999999, "longitude": -8.9633947, "rating": 4.3, "county": "Mayo"}, {"name": "McHale's Inver", "address": "Castlebar Road N5, Bellavary, Castlebar, Bellavary, Mayo Abbey, Ireland", "latitude": 53.8956084, "longitude": -9.1468433, "rating": 3.3, "county": "Mayo"}, {"name": "Top Oil Ballavary", "address": "Castlebar Rd, N5, Moneenbradagh, Ballyvary, Co. Mayo, Ireland", "latitude": 53.8559517, "longitude": -9.280277, "rating": 0, "county": "Mayo"}, {"name": "Circle K Castlebar", "address": "Moneenbradagh, Castlebar, Co. Mayo, Ireland", "latitude": 53.85662, "longitude": -9.28491, "rating": 4.2, "county": "Mayo"}, {"name": "Maxol N59", "address": "Carrowbaun, Co. Mayo, Ireland", "latitude": 53.78691999999999, "longitude": -9.52336, "rating": 4.1, "county": "Mayo"}, {"name": "Mace gulf", "address": "Castlebar Road, Rathkelly, Ballinrobe, Co. Mayo, Ireland", "latitude": 53.62979259999999, "longitude": -9.2318711, "rating": 3.8, "county": "Mayo"}, {"name": "Emo Oil - Burke & Coyne Filling Station", "address": "Coolnaha South Coolnaha, Ballyhaunis, Co. Mayo, Ireland", "latitude": 53.801659, "longitude": -8.772041, "rating": 4.4, "county": "Mayo"}, {"name": "Topaz", "address": "Lawn Rd, Moneenbradagh, Castlebar, Co. Mayo, Ireland", "latitude": 53.8566732, "longitude": -9.2850097, "rating": 0, "county": "Mayo"}, {"name": "Circle K Swinford", "address": "Dublin Rd, Kilbride, Co. Mayo, Ireland", "latitude": 53.9423396, "longitude": -8.9378789, "rating": 4.5, "county": "Mayo"}, {"name": "CircleK", "address": "Lannagh Rd, Garryduff, Castlebar, Co. Mayo, Ireland", "latitude": 53.85417469999999, "longitude": -9.305715, "rating": 1, "county": "Mayo"}, {"name": "Inver", "address": "Westport Rd, Ballynaboll South, Castlebar, Co. Mayo, Ireland", "latitude": 53.8384935, "longitude": -9.3341602, "rating": 4.3, "county": "Mayo"}, {"name": "Circle K Swinford", "address": "Swineford, Swinford, Co. Mayo, Ireland", "latitude": 53.9451557, "longitude": -8.952076199999999, "rating": 4.7, "county": "Mayo"}, {"name": "Maxol Service Station Newport Road", "address": "Ashlawn House, Newport Road, Cahernamart, Westport, Co. Mayo, F28 DX90, Ireland", "latitude": 53.80193389999999, "longitude": -9.5205481, "rating": 4.1, "county": "Mayo"}, {"name": "Esso", "address": "Swinford Rd, Foxford, Co. Mayo, Ireland", "latitude": 53.9813138, "longitude": -9.110230999999999, "rating": 0, "county": "Mayo"}, {"name": "Topaz Station Murphy's Autosales", "address": "Dublin Road, Devlis, Ballyhaunis, Co. Mayo, Ireland", "latitude": 53.7603601, "longitude": -8.7494681, "rating": 4.9, "county": "Mayo"}, {"name": "Top Oil Kilkelly Service Station", "address": "Knock Road, Barnahesker, Kilkelly, Co. Mayo, F35 V046, Ireland", "latitude": 53.8512856, "longitude": -8.857274, "rating": 4.2, "county": "Mayo"}, {"name": "Top Oil Cong Service Station", "address": "R345, Cong North, Co. Mayo, F31 H568, Ireland", "latitude": 53.5423088, "longitude": -9.2867948, "rating": 4.3, "county": "Mayo"}, {"name": "Maxol", "address": "Westport Rd, Ballynaboll South, Castlebar, Co. Mayo, Ireland", "latitude": 53.8384824, "longitude": -9.3341741, "rating": 3.9, "county": "Mayo"}, {"name": "Duffy's Costcutter Castlebar", "address": "Turlough Rd, Carrowncurry, Castlebar, Co. Mayo, F23 KX58, Ireland", "latitude": 53.8635525, "longitude": -9.295714799999999, "rating": 4.5, "county": "Mayo"}, {"name": "Texaco Westport", "address": "Castlebar Rd, Sheean, Mayo, Ireland", "latitude": 53.8032914, "longitude": -9.4722093, "rating": 3.9, "county": "Mayo"}]