[{"name": "Maxol Service Station Riverside", "address": "New By-Pass Road, Athlumney, Navan, Co. Meath, C15 TCK3, Ireland", "latitude": 53.64765939999999, "longitude": -6.6766352, "rating": 4.2}, {"name": "McBride's", "address": "N51 Hayes, Navan, Harmanstown, C15 EN1Y, Ireland", "latitude": 53.6890548, "longitude": -6.619383399999999, "rating": 4.4}, {"name": "Curran Oil Filling Station", "address": "Ross, Tara, Co. Meath, C15 AY0Y, Ireland", "latitude": 53.5693786, "longitude": -6.580612599999999, "rating": 4.4}, {"name": "Applegreen", "address": "Barstown, Co. Meath, Ireland", "latitude": 53.4510742, "longitude": -6.5961348, "rating": 3.7}, {"name": "Circle K", "address": "Trim Rd, Dillonsland, Navan, Co. Meath, Ireland", "latitude": 53.642829, "longitude": -6.6877051, "rating": 3.2}, {"name": "Top Oil Hayestown Service Station", "address": "Boyne Rd, Haystown, Dollardstown, Navan, Co. Meath, C15 HD4C, Ireland", "latitude": 53.6777545, "longitude": -6.6031686, "rating": 4}, {"name": "Emo Kilberry Service Station Limited & XL Shop", "address": "R162, Kilberry, Navan, Co. Meath, Ireland", "latitude": 53.700823, "longitude": -6.6806188, "rating": 4.6}, {"name": "Navan Filling Station", "address": "Blackcastle, Navan, Co. Meath, Ireland", "latitude": 53.6630395, "longitude": -6.680325900000001, "rating": 5}, {"name": "Texaco", "address": "Garlow Cross, Navan, Co. Meath, Ireland", "latitude": 53.6068812, "longitude": -6.624529600000001, "rating": 4.5}, {"name": "Circle K King's", "address": "Marshalstown, Co. Meath, Ireland", "latitude": 53.52589039999999, "longitude": -6.6721281, "rating": 4.4}, {"name": "Applegreen", "address": "Sarsfield, Gormanston, Co. Meath, K32 DX67, Ireland", "latitude": 53.6527208, "longitude": -6.2563029, "rating": 4.2}, {"name": "Applegreen", "address": "Keenoge, Keenogue, Co. Meath, A92 NXW0, Ireland", "latitude": 53.6596596, "longitude": -6.267571299999999, "rating": 4.2}, {"name": "Navan Heroes Service Station", "address": "Canon Row, Abbeyland South, Navan, Co. Meath, C15 H6NA, Ireland", "latitude": 53.6532679, "longitude": -6.690807599999999, "rating": 3.9}, {"name": "Applegreen", "address": "Athlumney, Kentstown Road, Co. Meath, C15 TW2A, Ireland", "latitude": 53.6507359, "longitude": -6.6640916, "rating": 4.1}, {"name": "Circle K", "address": "Ashbourne Town Centre, Ashbourne Industrial Estate, Ashbourne, Co. Meath, Ireland", "latitude": 53.5186716, "longitude": -6.4090399, "rating": 4.1}, {"name": "Circle K", "address": "L2228, Dunboyne, Co. Meath, A86 T046, Ireland", "latitude": 53.4200294, "longitude": -6.476480599999999, "rating": 3.5}, {"name": "Circle K Citynorth", "address": "Gormanston, Co. Meath, Ireland", "latitude": 53.63761, "longitude": -6.258341199999999, "rating": 4.3}, {"name": "Top", "address": "Smithstown, Co. Meath, Ireland", "latitude": 53.7353982, "longitude": -7.0344261, "rating": 4.5}, {"name": "Circle K", "address": "Proudstown Road, Blackcastle, Navan, Co. Meath, C15 F2DH, Ireland", "latitude": 53.6630417, "longitude": -6.680412400000001, "rating": 2.9}, {"name": "Applegreen", "address": "Slane Rd, Harmanstown, Navan, Co. Meath, Ireland", "latitude": 53.6890478, "longitude": -6.619406400000001, "rating": 4}, {"name": "Harry's Service Station", "address": "Mornington, Bettystown, Co. Meath, Ireland", "latitude": 53.7187798, "longitude": -6.2542145, "rating": 4.4}, {"name": "Top Oil Clonard Service Station", "address": "R148, Towlaght, Enfield, Co. Meath, A83 FD90, Ireland", "latitude": 53.4523115, "longitude": -7.028072700000001, "rating": 4}, {"name": "Top Oil Athboy Service Station", "address": "Trim Rd, Lower Bridge St, Eightyeight Acres, Athboy, Co. Meath, C15 XF8C, Ireland", "latitude": 53.6235917, "longitude": -6.914482400000001, "rating": 4.1}, {"name": "Conway's Filling Station", "address": "Ratoath, Jamestown, Ratoath, Co. Meath, Ireland", "latitude": 53.5003374, "longitude": -6.4673563, "rating": 4.4}, {"name": "Circle K", "address": "Beechmount Shopping Centre, Trim Rd, Dillonsland, Navan, Co. Meath, Ireland", "latitude": 53.6427573, "longitude": -6.687498499999999, "rating": 4.1}, {"name": "Casserly's Fuel Station", "address": "Kells, Oldtown, Kells, Co. Meath, Ireland", "latitude": 53.6712072, "longitude": -6.8130904, "rating": 4.1}, {"name": "Gohery's Filling Station", "address": "Hayestown Cottage, Haystown, Navan, Co. Meath, Ireland", "latitude": 53.6777476, "longitude": -6.603317300000001, "rating": 4.5}, {"name": "Emo - The Brink Service Station", "address": "Rathdrinagh, Beauparc, Co. Meath, C15 D2NA, Ireland", "latitude": 53.6652137, "longitude": -6.529046, "rating": 4.2}, {"name": "Top Oil Kilmoon Service Station", "address": "Kilmoon, Cushinstown, Co. Meath, A84 VP94, Ireland", "latitude": 53.5727774, "longitude": -6.447387699999999, "rating": 3.8}, {"name": "Top Oil Summerhill Service Station", "address": "R158, Summerhill, Co. Meath, A83 FK35, Ireland", "latitude": 53.4815198, "longitude": -6.731868899999999, "rating": 4.1}, {"name": "Maxol Service Station & Costcutter Express", "address": "Haggard St, Trim, Co. Meath, C15 EH11, Ireland", "latitude": 53.5597559, "longitude": -6.790633, "rating": 0}, {"name": "Bracetown Service Station", "address": "R147, Paddingstown, Clonee, Co. Meath, Ireland", "latitude": 53.4311681, "longitude": -6.4613542, "rating": 4}, {"name": "Barry Gillen Service Station", "address": "R154, Logantown, Trim, Co. Meath, Ireland", "latitude": 53.553131, "longitude": -6.761205599999999, "rating": 0}, {"name": "Circle K Express Staholmog", "address": "Staholmog, Carlanstown, Co. Meath, A82 V261, Ireland", "latitude": 53.77535650000001, "longitude": -6.7955061, "rating": 0}, {"name": "Texaco", "address": "R156, Portan, Co. Meath, Ireland", "latitude": 53.4105857, "longitude": -6.441643, "rating": 4.1}, {"name": "Maxol Service Station Flower Hill", "address": "Flower Hill, Blackcastle, Navan, Co. Meath, C15 D43Y, Ireland", "latitude": 53.6579999, "longitude": -6.6800735, "rating": 4.3}, {"name": "Swans Petrol", "address": "Oberstown, Main Street, Colvinstown, Tara, Co. Meath, Ireland", "latitude": 53.5778376, "longitude": -6.5469987, "rating": 4.2}, {"name": "Circle K Coolfore, N2", "address": "Coolfore, Co. Meath, Ireland", "latitude": 53.5529527, "longitude": -6.4359896, "rating": 4.3}, {"name": "Circle K Slane", "address": "Derry Road, Slane, Co. Meath, C15 EP22, Ireland", "latitude": 53.713566, "longitude": -6.53614, "rating": 3}, {"name": "Applegreen", "address": "N51, Townparks, Navan, Co. Meath, Ireland", "latitude": 53.6506925, "longitude": -6.7062146, "rating": 4.2}, {"name": "Circle K", "address": "Bracetown, Clonee, Co. Meath, D15 W9YX, Ireland", "latitude": 53.4270012, "longitude": -6.4624475, "rating": 2.5}, {"name": "O'Neill's Service Station", "address": "R162, Wilkinstown, Co. Meath, Ireland", "latitude": 53.73623139999999, "longitude": -6.7127667, "rating": 0}, {"name": "Top Oil Bective Service Station", "address": "Balgill, Bective, Co. Meath, C15 TC78, Ireland", "latitude": 53.6003473, "longitude": -6.6974528, "rating": 4.6}, {"name": "Fuel Centre", "address": "Dan Shaw Rd, Dillonsland, Navan, Co. Meath, Ireland", "latitude": 53.6434678, "longitude": -6.688473399999999, "rating": 0}, {"name": "Certa", "address": "Primatestown, Ashbourne, Co. Meath, A84 NY04, Ireland", "latitude": 53.5604248, "longitude": -6.4419086, "rating": 3.8}, {"name": "Circle K", "address": "Trim Retail Park, Navan Gate, Trim, Co. Meath, Ireland", "latitude": 53.56239900000001, "longitude": -6.767023999999999, "rating": 3.6}, {"name": "Top Oil Kilbride Service Station", "address": "Kilbride Road, Priest Town, Kilbride, Co. Meath, D15 EW6T, Ireland", "latitude": 53.4506338, "longitude": -6.3951408, "rating": 4.5}, {"name": "Campus", "address": "R158, Main St, Summerhill, Co. Meath, A83 TP48, Ireland", "latitude": 53.481603, "longitude": -6.731817599999999, "rating": 4.6}, {"name": "Texaco", "address": "Mornington, Co. Meath, Ireland", "latitude": 53.7187875, "longitude": -6.2536499, "rating": 4.1}, {"name": "Top Oil Cloncat Service Station", "address": "Cloncat, Fordstown, Co. Meath, C15 EVC0, Ireland", "latitude": 53.6787493, "longitude": -6.953728900000001, "rating": 4.3}, {"name": "Joe Curran / Tara Service Station", "address": "Navan South, Philpotstown, Garlow Cross, Co. Meath, Ireland", "latitude": 53.6068493, "longitude": -6.624484199999999, "rating": 4}, {"name": "Applegreen Duleek", "address": "Carranstown, Drogheda Road, Co. Meath, A92 AYD6, Ireland", "latitude": 53.666829, "longitude": -6.3993503, "rating": 3.9}, {"name": "Gala Express", "address": "Navan, Abbeyland South, Navan, Co. Meath, Ireland", "latitude": 53.6532525, "longitude": -6.6908075, "rating": 0}, {"name": "Applegreen", "address": "298 Main St, Johnstown, Enfield, Co. Meath, A83 DH97, Ireland", "latitude": 53.4149815, "longitude": -6.8346203, "rating": 4.2}, {"name": "Bective Service Station", "address": "Balgill, Navan, Co. Meath, Ireland", "latitude": 53.6001137, "longitude": -6.6974089, "rating": 4}, {"name": "Texaco", "address": "R153, Co. Meath, Ireland", "latitude": 53.6223215, "longitude": -6.5060289, "rating": 3.8}, {"name": "Circle K", "address": "Fairyhouse Rd, Newtown, Ratoath, Co. Meath, Ireland", "latitude": 53.48893229999999, "longitude": -6.4716755, "rating": 3.2}, {"name": "Hillside Stores Service Station", "address": "R163, Drumbaragh, Kells, Co. Meath, A82 D2N3, Ireland", "latitude": 53.7261756, "longitude": -6.940129, "rating": 4.3}, {"name": "The Country Store Service Station", "address": "Dublin Rd, Ballymurphy, Dunshaughlin, Co. Meath, Ireland", "latitude": 53.4982785, "longitude": -6.5306381, "rating": 4.3}, {"name": "Clonee Service Station", "address": "Clonee, Portan, Clonee, Co. Meath, Ireland", "latitude": 53.410586, "longitude": -6.4416505, "rating": 4.3}]