[{"name": "Go Petrol Station", "address": "Broad Rd, Tirkeenan, Monaghan, Ireland", "latitude": 54.245537, "longitude": -6.967755899999999, "rating": 3.2}, {"name": "Maxol Service Station Coolshannagh", "address": "Coolshannagh, Monaghan, H18 K585, Ireland", "latitude": 54.2586984, "longitude": -6.9587057, "rating": 4.3}, {"name": "Oriel Filling Station", "address": "Dublin Rd, Latlorcan, Monaghan, Ireland", "latitude": 54.2418904, "longitude": -6.9493856, "rating": 0}, {"name": "Applegreen", "address": "Clones Rd, Mullaghmonaghan, Monaghan, H18 RX53, Ireland", "latitude": 54.2459755, "longitude": -6.977183200000001, "rating": 4.2}, {"name": "McNallys Monaghan", "address": "Cootehill Rd, Sheetrim, Monaghan, Ireland", "latitude": 54.22787, "longitude": -6.970430899999999, "rating": 4.7}, {"name": "McCaugheys Maxol Service Station", "address": "9 Clones Rd, Knockroe, Monaghan, H18 N242, Ireland", "latitude": 54.24476869999999, "longitude": -6.9872425, "rating": 4.1}, {"name": "Londis", "address": "Dublin Rd, Latlorcan, Monaghan, Ireland", "latitude": 54.2414321, "longitude": -6.949283, "rating": 4.2}, {"name": "Circle K", "address": "Monaghan St, Mullamurphy, Clones, Co. Monaghan, Ireland", "latitude": 54.263683, "longitude": -6.959817699999999, "rating": 4.1}, {"name": "Texoil", "address": "Dublin Rd, Latlorcan, Monaghan, Ireland", "latitude": 54.2415186, "longitude": -6.9495356, "rating": 4.3}, {"name": "T Martin Fuels Monaghan Limited", "address": "Killyvane, Tamlet, Monaghan, Ireland", "latitude": 54.2276177, "longitude": -6.9583323, "rating": 4.6}, {"name": "J.Mc Guirk Fuels", "address": "Tirkeenan, Monaghan, Ireland", "latitude": 54.2464447, "longitude": -6.965578499999999, "rating": 0}, {"name": "H. Cassidy & Sons", "address": "Carrowhatta, Co. Monaghan, Ireland", "latitude": 54.2762978, "longitude": -7.0645319, "rating": 0}, {"name": "Top Oil Smithborough Service Station", "address": "Mulladuff, Smithborough, Co. Monaghan, H18 Y566, Ireland", "latitude": 54.2215102, "longitude": -7.098595599999999, "rating": 3.5}, {"name": "Silverstream Service Station Ltd", "address": "Silverstream, Co. Monaghan, Ireland", "latitude": 54.2700596, "longitude": -6.8739728, "rating": 4.4}, {"name": "Foyduff Filling Station", "address": "350 Monaghan Rd, Armagh BT60 4JQ, United Kingdom", "latitude": 54.2758326, "longitude": -6.8654727, "rating": 4}, {"name": "Emo Main Street", "address": "Lisdarragh, Co. Monaghan, Ireland", "latitude": 54.15763, "longitude": -7.13685, "rating": 3.9}, {"name": "Murphy Oils", "address": "Drumboe, Castleshane, Co. Monaghan, Ireland", "latitude": 54.23719450000001, "longitude": -6.88473, "rating": 4}, {"name": "Rockcorry Service Station", "address": "Monaghan Rd, Corkeeran, Co. Monaghan, Ireland", "latitude": 54.1191237, "longitude": -7.0111358, "rating": 4.5}, {"name": "AS 24", "address": "N2, Mullynure, Monaghan, Ireland", "latitude": 54.3998626, "longitude": -6.9773881, "rating": 0}, {"name": "Statoil R162", "address": "Cornamucklaglass, Co. Monaghan, Ireland", "latitude": 54.13137, "longitude": -6.904459999999999, "rating": 4.1}, {"name": "Circle K N2 Dunmoran Ltd.", "address": "Mullanderg, Emyvale, Co. Monaghan, H18 EN84, Ireland", "latitude": 54.3924767, "longitude": -6.9735678, "rating": 4.4}, {"name": "Top Oil Emyvale Service Station", "address": "Main St, Derrygassan Upper, Emyvale, Co. Monaghan, H18 WP52, Ireland", "latitude": 54.3416075, "longitude": -6.9592583, "rating": 4.9}, {"name": "Top Oil Braeside Stores", "address": "Flat 2, Braeside Stores, Carrickaderry, Clontibret, Co. Monaghan, H18 H583, Ireland", "latitude": 54.206473, "longitude": -6.8426242, "rating": 4.8}, {"name": "Brenbay Filling Station", "address": "St Patricks St, Cornamucklaglass, Ballybay, Co. Monaghan, Ireland", "latitude": 54.1313489, "longitude": -6.9045491, "rating": 4.4}, {"name": "Mone Fuels", "address": "Tullynagrow, Castleblayney, Co. Monaghan, A75 EF82, Ireland", "latitude": 54.18455179999999, "longitude": -6.7338328, "rating": 5}, {"name": "Topaz Service Station - XL STOP & SHOP", "address": "8, 10 Drummond Radhairc, Drummond Otra, Co. Monaghan, Ireland", "latitude": 53.9689412, "longitude": -6.700726400000001, "rating": 4.3}, {"name": "Emo express Moybridge - McAnenly's Service Station", "address": "Moybridge, Mullynure, Emyvale, Co. Monaghan, Ireland", "latitude": 54.3998668, "longitude": -6.9773859, "rating": 4.4}, {"name": "GreatGas - G&G Emyvale", "address": "Main St, Derrygassan Upper, Emyvale, Co. Monaghan, Ireland", "latitude": 54.3400231, "longitude": -6.959652699999999, "rating": 0}, {"name": "Tedcastles R162@R180", "address": "Cornamucklaglass, Co. Monaghan, Ireland", "latitude": 54.125839, "longitude": -6.9007631, "rating": 4}, {"name": "Blayney Service Station", "address": "Killycard, Castleblayney, Co. Monaghan, Ireland", "latitude": 54.1182236, "longitude": -6.750473400000001, "rating": 4.7}, {"name": "Top Oil Ballybay Glendale Oil", "address": "Castleblayney Rd, Cornamucklaglass, Ballybay, Co. Monaghan, A75 VR74, Ireland", "latitude": 54.1297704, "longitude": -6.898671999999999, "rating": 4.7}, {"name": "Topaz", "address": "Monaghan Rd, Onomy, Castleblayney, Co. Monaghan, Ireland", "latitude": 54.11542499999999, "longitude": -6.7329453, "rating": 4}, {"name": "Maxol Castleblaney", "address": "Onomy, Co. Monaghan, Ireland", "latitude": 54.1153963, "longitude": -6.7329899, "rating": 4.5}, {"name": "Top Oil", "address": "R181, Cooltrimegish, Castleblayney, Co. Monaghan, A75 DP64, Ireland", "latitude": 54.0675186, "longitude": -6.8129602, "rating": 0}, {"name": "McAloon's Grocery Store", "address": "Knockatallon Primary School, Milligan, Scotstown, Co. Monaghan, Ireland", "latitude": 54.2945485, "longitude": -7.1508068, "rating": 4.7}, {"name": "Applegreen", "address": "Monaghan St, Largy, Co. Monaghan, H23 XT20, Ireland", "latitude": 54.1802524, "longitude": -7.2281171, "rating": 4.2}, {"name": "Applegreen", "address": "Monaghan Rd, Moraghy, Co. Monaghan, Ireland", "latitude": 54.1230701, "longitude": -6.7442895, "rating": 4.7}, {"name": "Emo Todays Castleblayney", "address": "Monaghan Rd, Moraghy, Castleblayney, Co. Monaghan, Ireland", "latitude": 54.12079019999999, "longitude": -6.7404451, "rating": 3.4}, {"name": "Circle K Clones", "address": "Topaz Clones Road, Monaghan St, Clones, Co. Monaghan, Ireland", "latitude": 54.1815322, "longitude": -7.226164199999999, "rating": 4.3}, {"name": "Tullyagrow Fuelserve (Hgv)", "address": "Tullynagrow, Castleblayney, Co. Monaghan, Ireland", "latitude": 54.1847302, "longitude": -6.7351893, "rating": 5}, {"name": "Top Oil Aghananimy Hanratty Fuels", "address": "Dublin Rd, Latlorcan, Monaghan, H18 YK80, Ireland", "latitude": 54.2419219, "longitude": -6.949358500000001, "rating": 4.2}, {"name": "Ballybay Service Station", "address": "Cornamucklaglass, Co. Monaghan, Ireland", "latitude": 54.131086, "longitude": -6.904691199999999, "rating": 0}]