[{"name": "Dolans Service Station", "address": "Clara Rd, Puttaghan, Tullamore, Co. Offaly, R35 DN88, Ireland", "latitude": 53.2788518, "longitude": -7.4987322, "rating": 4.6, "county": "Offaly"}, {"name": "Circle K Express", "address": "Clara Rd, Puttaghan, Tullamore, Co. Offaly, Ireland", "latitude": 53.2787821, "longitude": -7.498770299999999, "rating": 4.2, "county": "Offaly"}, {"name": "Emo Cappincur filling station", "address": "Cloncollog, Tullamore, Co. Offaly, Ireland", "latitude": 53.2770722, "longitude": -7.4681931, "rating": 4.5, "county": "Offaly"}, {"name": "Corrib Oil Fuel Centre", "address": "R439, Banagher Rd, Townparks, Co. Offaly, Ireland", "latitude": 53.1023027, "longitude": -7.9151368, "rating": 5, "county": "Offaly"}, {"name": "Topaz Birr", "address": "Kylebeg, Lavagh Road, Co. Offaly, Ireland", "latitude": 53.1023359, "longitude": -7.915131199999999, "rating": 4.5, "county": "Offaly"}, {"name": "Applegreen", "address": "47 Marian Pl, Kilcruttin, Tullamore, Co. Offaly, R35 E440, Ireland", "latitude": 53.2732312, "longitude": -7.499388399999999, "rating": 4.4, "county": "Offaly"}, {"name": "Texaco", "address": "R420, Cloncollog, Tullamore, Co. Offaly, Ireland", "latitude": 53.2667053, "longitude": -7.4644126, "rating": 0, "county": "Offaly"}, {"name": "Circle K Express", "address": "The Fingerboard, Charleville Rd, Ballard, Tullamore, Co. Offaly, R35 W6F8, Ireland", "latitude": 53.2561401, "longitude": -7.513671299999999, "rating": 5, "county": "Offaly"}, {"name": "Daybreak Balinagar Service Station", "address": "Cappagh Grove, Ballinagar, Tullamore, Co. Offaly, R35 V6P8, Ireland", "latitude": 53.2664359, "longitude": -7.338313799999999, "rating": 4.4, "county": "Offaly"}, {"name": "Tesco", "address": "Portarlington Road, Tullamore, Co. Offaly, R35 C2X2, Ireland", "latitude": 53.267351, "longitude": -7.4678788, "rating": 4.5, "county": "Offaly"}, {"name": "Maxol", "address": "Cloncollog, Tullamore, Co. Offaly, Ireland", "latitude": 53.2696632, "longitude": -7.474563, "rating": 4.4, "county": "Offaly"}, {"name": "Flaherty Fuel Oils", "address": "Ferbane, Co. Offaly, Ireland", "latitude": 53.2811403, "longitude": -7.8128565, "rating": 5, "county": "Offaly"}, {"name": "Emo", "address": "Blue Ball, N52, Co. Offaly, R35 C9P5, Ireland", "latitude": 53.2288659, "longitude": -7.613780699999999, "rating": 5, "county": "Offaly"}, {"name": "Top Oil Galfer Filling Station", "address": "Hill St, Creggan, Cloghan, Co. Offaly, R42 RK73, Ireland", "latitude": 53.2247491, "longitude": -7.8805185, "rating": 4, "county": "Offaly"}, {"name": "Texaco Spar Ferbane", "address": "Athlone Rd, Ferbane, Co. Offaly, Ireland", "latitude": 53.27344, "longitude": -7.8272483, "rating": 4.4, "county": "Offaly"}, {"name": "Circle K", "address": "23 M7, Moneygall, Co. Offaly, Ireland", "latitude": 52.8849329, "longitude": -7.944966599999999, "rating": 4.4, "county": "Offaly"}, {"name": "Circle K Express", "address": "Arden Rd, Tullamore, Co. Offaly, Ireland", "latitude": 53.2705943, "longitude": -7.491487299999998, "rating": 4.3, "county": "Offaly"}, {"name": "Top Oil Mount Lucas Service Station", "address": "Ballyhugh, Mount Lucas, Co. Offaly, R35 TC21, Ireland", "latitude": 53.29792, "longitude": -7.211452800000001, "rating": 4.5, "county": "Offaly"}, {"name": "Cloghan Service Station", "address": "Ferbane St, Creggan, Cloghan, Co. Offaly, Ireland", "latitude": 53.2273018, "longitude": -7.8795986, "rating": 4.6, "county": "Offaly"}, {"name": "Certa", "address": "Cloncollog, Tullamore, Co. Offaly, R35 NH59, Ireland", "latitude": 53.2673378, "longitude": -7.467790699999999, "rating": 3.9, "county": "Offaly"}, {"name": "Top Oil Banagher Service Station", "address": "Birr Rd, Main St, Feeghroe, Banagher, Co. Offaly, R42 TX09, Ireland", "latitude": 53.181701, "longitude": -7.977394599999999, "rating": 4.3, "county": "Offaly"}, {"name": "Emo Oil Fuel Card Pump", "address": "Pallaspark, Tullamore, Co. Offaly, Ireland", "latitude": 53.228847, "longitude": -7.614031, "rating": 3.9, "county": "Offaly"}, {"name": "Circle K", "address": "Arden Rd, Ardan, Tullamore, Co. Offaly, R35 R7V0, Ireland", "latitude": 53.29193, "longitude": -7.496581099999999, "rating": 4.3, "county": "Offaly"}, {"name": "Circle K Express Birr", "address": "Tullamore Rd, Townparks, Birr, Co. Offaly, R42 ND74, Ireland", "latitude": 53.10283390000001, "longitude": -7.9065295, "rating": 4.5, "county": "Offaly"}, {"name": "Mfs N52@N62", "address": "Seefin, Co. Offaly, Ireland", "latitude": 53.0902229, "longitude": -7.9077461, "rating": 3.9, "county": "Offaly"}, {"name": "Top Oil Gas Station", "address": "R436 Kilbeggan Rd, River St, Kilcoursey, Clara, Co. Offaly, R35 V8K8, Ireland", "latitude": 53.341059, "longitude": -7.609201100000001, "rating": 0, "county": "Offaly"}, {"name": "Topaz N52@N62", "address": "Townparks, Co. Offaly, Ireland", "latitude": 53.10328, "longitude": -7.90654, "rating": 3.4, "county": "Offaly"}, {"name": "TEXACO Station Tullamore", "address": "Blue Ball, N52, Pallaspark, Tullamore, Co. Offaly, Ireland", "latitude": 53.2288659, "longitude": -7.613780699999999, "rating": 4.7, "county": "Offaly"}, {"name": "Tullamore Portalington Rd", "address": "Portarlington Rd, Cloncollog, Tullamore, Co. Offaly, Ireland", "latitude": 53.2667471, "longitude": -7.4642967, "rating": 4, "county": "Offaly"}, {"name": "Birr Oil", "address": "Tullamore Rd, Ballywilliam, Co. Offaly, Ireland", "latitude": 53.1069618, "longitude": -7.8961553, "rating": 5, "county": "Offaly"}, {"name": "Top Oil Flynn's Service Station", "address": "Harbour St, Curraghavarna, Banagher, Co. Offaly, R42 RY10, Ireland", "latitude": 53.1902738, "longitude": -7.9856981, "rating": 4, "county": "Offaly"}, {"name": "Applegreen Tullamore Axis", "address": "Srah, Tullamore, Co. Offaly, Ireland", "latitude": 53.2894914, "longitude": -7.514881, "rating": 4.3, "county": "Offaly"}, {"name": "Texaco - Kelly's Off Licence", "address": "53.249625, -7.552554, Ireland", "latitude": 53.2496228, "longitude": -7.552558099999999, "rating": 5, "county": "Offaly"}, {"name": "Maunsell's Gala", "address": "R420 Portarlington Road, Tullamore, R35 F9C9, Ireland", "latitude": 53.2666502, "longitude": -7.4641693, "rating": 4.4, "county": "Offaly"}, {"name": "Inver Byrne's", "address": "Geashill, Co. Offaly, Ireland", "latitude": 53.2365192, "longitude": -7.3237425, "rating": 4.3, "county": "Offaly"}, {"name": "Top Oil Clara Service Station", "address": "R436 Charlestown, Clara, Co. Offaly, R35 V8K8, Ireland", "latitude": 53.3266667, "longitude": -7.6720637, "rating": 4.1, "county": "Offaly"}, {"name": "Emo Doolan's N52", "address": "Main Street Park, Kilcormac, Co. Offaly, Ireland", "latitude": 53.1772247, "longitude": -7.7215962, "rating": 4.5, "county": "Offaly"}, {"name": "Top - Spar", "address": "Hill St, Creggan, Co. Offaly, Ireland", "latitude": 53.22480849999999, "longitude": -7.880619699999999, "rating": 5, "county": "Offaly"}, {"name": "Certa", "address": "Dublin Rd, Edenderry, Co. Offaly, R45 P963, Ireland", "latitude": 53.3447288, "longitude": -7.0415557, "rating": 4.5, "county": "Offaly"}, {"name": "MACE - Clara Filling Station", "address": "Charlestown House, Kilcoursey, Clara, Co. Offaly, R35 V8K8, Ireland", "latitude": 53.341195, "longitude": -7.609279399999999, "rating": 4.3, "county": "Offaly"}, {"name": "Top Oil Birr Carrolls Service Station", "address": "Railway Rd, Seefin, Birr, Co. Offaly, R42 N990, Ireland", "latitude": 53.0928784, "longitude": -7.907562, "rating": 4.4, "county": "Offaly"}, {"name": "Mulrooneys Gala Shop & Inver Service Station", "address": "N52, Seefin, Co. Offaly, Ireland", "latitude": 53.0902098, "longitude": -7.9077704, "rating": 4.8, "county": "Offaly"}, {"name": "Spar", "address": "Townparks, Co. Offaly, Ireland", "latitude": 53.1023928, "longitude": -7.915118100000001, "rating": 4.4, "county": "Offaly"}, {"name": "Texaco - Clara Motors", "address": "Clara, Co. Offaly, Ireland", "latitude": 53.3448679, "longitude": -7.615994799999999, "rating": 4.5, "county": "Offaly"}, {"name": "Texaco", "address": "Edenderry, Co. Offaly, Ireland", "latitude": 53.3441522, "longitude": -7.044567499999999, "rating": 4.3, "county": "Offaly"}, {"name": "Kelly's Garage", "address": "Derrydolney, Co. Offaly, Ireland", "latitude": 53.18824189999999, "longitude": -7.6842499, "rating": 2, "county": "Offaly"}, {"name": "Top R356", "address": "Curraghavarna, Co. Offaly, Ireland", "latitude": 53.1902112, "longitude": -7.9858725, "rating": 4.7, "county": "Offaly"}, {"name": "Applegreen", "address": "Railway Rd, Seefin, Birr, Co. Offaly, R42 NY54, Ireland", "latitude": 53.09067659999999, "longitude": -7.907636200000001, "rating": 4.2, "county": "Offaly"}, {"name": "Circle K", "address": "St Mary's Rd, Edenderry, Co. Offaly, Ireland", "latitude": 53.3362396, "longitude": -7.061888000000001, "rating": 4.5, "county": "Offaly"}, {"name": "Gormans", "address": "Millbrook, Killeigh, Co. Offaly, Ireland", "latitude": 53.2140732, "longitude": -7.450342699999999, "rating": 4.6, "county": "Offaly"}, {"name": "Inver", "address": "Roscrea Rd, Seefin, Birr, Co. Offaly, Ireland", "latitude": 53.0901844, "longitude": -7.9077439, "rating": 4.5, "county": "Offaly"}, {"name": "Circle K - M6 Kilbeggan", "address": "Circle K, M6 Service Centre, Tullamore Rd, Kilbeggan, Co. Westmeath, N91 FNV0, Ireland", "latitude": 53.36310289999999, "longitude": -7.496750399999999, "rating": 4.4, "county": "Offaly"}, {"name": "Gala", "address": "1 Patrick St, Kilmalogue, Portarlington, Co. Offaly, R32 AK61, Ireland", "latitude": 53.1619167, "longitude": -7.1940314, "rating": 4.6, "county": "Offaly"}, {"name": "Coughlan Car Care", "address": "Canal Line, Gallen, Ferbane, Co. Offaly, R42 TP02, Ireland", "latitude": 53.2530766, "longitude": -7.8186835, "rating": 5, "county": "Offaly"}, {"name": "Talbot Motor Factors", "address": "Mill St, Townparks, Birr, Co. Offaly, Ireland", "latitude": 53.0951279, "longitude": -7.9109164, "rating": 5, "county": "Offaly"}, {"name": "Applegreen", "address": "Irishtown, Mountmellick, Co. Laois, R32 NP9N, Ireland", "latitude": 53.1091504, "longitude": -7.328259300000001, "rating": 4.2, "county": "Offaly"}, {"name": "Spar Ferbane", "address": "Spar, Ferbane, Co. Offaly, Ireland", "latitude": 53.2734456, "longitude": -7.827515699999999, "rating": 4.4, "county": "Offaly"}, {"name": "Emo N52", "address": "Tyrrellspass, Co. Westmeath, Ireland", "latitude": 53.39035, "longitude": -7.37398, "rating": 4.1, "county": "Offaly"}, {"name": "Applegreen", "address": "Dublin Road, Kilbeggan, Co. Westmeath, N E2TA, 91, Ireland", "latitude": 53.3689826, "longitude": -7.480366900000001, "rating": 4.3, "county": "Offaly"}, {"name": "Texaco Spar Mountmellick", "address": "Spar Service Station, Emo, Townparks, Mountmellick, Co. Laois, Ireland", "latitude": 53.1235328, "longitude": -7.332727599999999, "rating": 4.2, "county": "Offaly"}]