[{"name": "Casey's Circle K", "address": "Athlone Rd, Ardsallagh More, Roscommon, Ireland", "latitude": 53.628836, "longitude": -8.186584, "rating": 4.4}, {"name": "Emo Roscommon", "address": "Athlone Rd, Ardsallagh More, Roscommon, F42 XC64, Ireland", "latitude": 53.6244722, "longitude": -8.1719227, "rating": 0}, {"name": "Top Oil Roscommon Service Station", "address": "Lanesboro Road, Roscommon, F42 P668, Ireland", "latitude": 53.6344524, "longitude": -8.179530200000002, "rating": 4.8}, {"name": "Maxol", "address": "Lower Castle St, Cloonbrackna, Roscommon, Ireland", "latitude": 53.63738919999999, "longitude": -8.19131, "rating": 4.4}, {"name": "Corrib Oil Roscommon Petrol Station", "address": "Racecourse Rd, Lisnacroghy, Roscommon, Ireland", "latitude": 53.6415867, "longitude": -8.211383399999999, "rating": 4.5}, {"name": "D.G. Oil Ltd (Roscommon. Racecourse Road)", "address": "Lisnacroghy, Co. Roscommon, Ireland", "latitude": 53.6410598, "longitude": -8.2113385, "rating": 5}, {"name": "Mee's Daybreak", "address": "Glebe, Knockcroghery, Co. Roscommon, Ireland", "latitude": 53.5751015, "longitude": -8.0932654, "rating": 4.5}, {"name": "Inver", "address": "Lanesboro Bridge, Ballyleague, Roscommon, N39 W2C2, Ireland", "latitude": 53.6756299, "longitude": -7.996503300000001, "rating": 4.4}, {"name": "Inver Knockcroghery", "address": "Main St, Glebe, Knockcroghery, Co. Roscommon, F45 KH36, Ireland", "latitude": 53.57512, "longitude": -8.0932993, "rating": 5}, {"name": "XL JONES ATHLEAGUE (service station and deli)", "address": "Keenagh, Athleague, Co. Roscommon, Ireland", "latitude": 53.56936469999999, "longitude": -8.251357, "rating": 3.9}, {"name": "Bord na Mona Roscommon", "address": "Ballyglass, Co. Roscommon, Ireland", "latitude": 53.6971241, "longitude": -8.0008039, "rating": 0}, {"name": "J. Beirne Texaco", "address": "Parkowen, Co. Roscommon, Ireland", "latitude": 53.7757718, "longitude": -8.103626000000002, "rating": 0}, {"name": "Applegreen", "address": "Cross, Tulsk, Co. Roscommon, F45 PX61, Ireland", "latitude": 53.7776209, "longitude": -8.250835499999999, "rating": 3.9}, {"name": "Top Oil Dempseys Service Station", "address": "R363, Ashbrook, Ballyforan, Co. Roscommon, H53 NY51, Ireland", "latitude": 53.47067999999999, "longitude": -8.2632754, "rating": 4.6}, {"name": "XL JONES Athleague", "address": "Keenagh, Athleague, Co. Roscommon, Ireland", "latitude": 53.5694426, "longitude": -8.2511198, "rating": 4.7}, {"name": "Emo Ballinlough Service Station", "address": "Ballyhaunis Road, Ballinlough, Co. Roscommon, Ireland", "latitude": 53.7434272, "longitude": -8.6391549, "rating": 4.4}, {"name": "Top Oil Hodson Bay Service Station", "address": "Barry Beg, Kiltoom, Co. Roscommon, N37 C7W5, Ireland", "latitude": 53.4495454, "longitude": -7.9857367, "rating": 4.3}, {"name": "Texaco", "address": "Farnbeg, Strokestown, Co. Roscommon, Ireland", "latitude": 53.7738218, "longitude": -8.1031816, "rating": 2.4}, {"name": "Top R368", "address": "Abbeycartron, Co. Roscommon, Ireland", "latitude": 53.8458289, "longitude": -8.1907197, "rating": 4.4}, {"name": "Mchughs", "address": "Liscam, Co. Roscommon, Ireland", "latitude": 53.4846162, "longitude": -8.1115588, "rating": 0}, {"name": "Circle K", "address": "N60 Racecourse Rd, Lisnacroghy, Roscommon, Ireland", "latitude": 53.6416172, "longitude": -8.2111333, "rating": 4.1}, {"name": "Topaz N60 Roscommon", "address": "Racecourse Rd, Lisnacroghy, Roscommon, Ireland", "latitude": 53.6416221, "longitude": -8.2111432, "rating": 5}]