[{"name": "Innisfree Service Station 24hr", "address": "Pearse Rd, R287, Commons, Sligo, F91 W9KP, Ireland", "latitude": 54.2620666, "longitude": -8.4675647, "rating": 4.3, "county": "Sligo"}, {"name": "Applegreen", "address": "Mail Coach Rd, Abbeyquarter South, Sligo, F91 K122, Ireland", "latitude": 54.2657398, "longitude": -8.471826499999999, "rating": 4.3, "county": "Sligo"}, {"name": "Tara Petrol Station", "address": "R286, Bellanode, Sligo, Ireland", "latitude": 54.2764142, "longitude": -8.458549300000001, "rating": 4.3, "county": "Sligo"}, {"name": "Circle K", "address": "Old Bundoran Rd, Ballytivnan, Sligo, Ireland", "latitude": 54.2802846, "longitude": -8.4728777, "rating": 3.8, "county": "Sligo"}, {"name": "Top Oil Mullens Sligo", "address": "Old Bundoran Rd, Ballytivnan, Co. Sligo, F91 A39R, Ireland", "latitude": 54.2846286, "longitude": -8.4731791, "rating": 4.4, "county": "Sligo"}, {"name": "LMS Xpress", "address": "Finisklin Rd, Finisklin, Sligo, F91 N5RE, Ireland", "latitude": 54.27649, "longitude": -8.4851263, "rating": 4.5, "county": "Sligo"}, {"name": "Benview Service Station", "address": "Old Bundoran Rd, Ballytivnan, Sligo, F91 KF50, Ireland", "latitude": 54.2827652, "longitude": -8.4726798, "rating": 0, "county": "Sligo"}, {"name": "Sligo Fuels", "address": "Deepwater Quay, Cartron, Sligo, F91 X5XP, Ireland", "latitude": 54.2801499, "longitude": -8.488303199999999, "rating": 4.5, "county": "Sligo"}, {"name": "Top Oil Canning's Spar", "address": "Pearse Rd, Cornageeha, Sligo, F91 K0DH, Ireland", "latitude": 54.2549696, "longitude": -8.4720532, "rating": 3.6, "county": "Sligo"}, {"name": "Applegreen Carraroe", "address": "Applegreen, R287, Carrowroe, Sligo, F91 K7DH, Ireland", "latitude": 54.2472346, "longitude": -8.4746708, "rating": 4.2, "county": "Sligo"}, {"name": "Texaco N15", "address": "Ballytivnan, Co. Sligo, Ireland", "latitude": 54.284575, "longitude": -8.4731224, "rating": 3.3, "county": "Sligo"}, {"name": "Top Oil Sligo Depot", "address": "N15 Old Bundoran Rd, Ballytivnan, Sligo, F91 HP20, Ireland", "latitude": 54.2846284, "longitude": -8.4731808, "rating": 4.8, "county": "Sligo"}, {"name": "gala", "address": "Commons, Sligo, Ireland", "latitude": 54.2620496, "longitude": -8.4677702, "rating": 0, "county": "Sligo"}, {"name": "Topaz", "address": "Larass, Co. Sligo, Ireland", "latitude": 54.2708579, "longitude": -8.5823681, "rating": 3.9, "county": "Sligo"}, {"name": "Certa", "address": "Clooneen, Rathcormack, Co. Sligo, F91 A03W, Ireland", "latitude": 54.3184021, "longitude": -8.4803867, "rating": 3, "county": "Sligo"}, {"name": "Topaz", "address": "Old, N4, Ballysadare, Co. Sligo, F91 N67P, Ireland", "latitude": 54.2022449, "longitude": -8.5006863, "rating": 0, "county": "Sligo"}, {"name": "Circle K & Centra", "address": "Lar Easa Cove, Larass, Strandhill, Co. Sligo, Ireland", "latitude": 54.2707815, "longitude": -8.5821341, "rating": 3.7, "county": "Sligo"}, {"name": "Top Oil Collooney", "address": "R290, North West Business Park, Sligo Junction, Co. Sligo, F91 AX2D, Ireland", "latitude": 54.1826292, "longitude": -8.484645, "rating": 4.2, "county": "Sligo"}, {"name": "CIRCLE K, Grange", "address": "Aghagad, Co. Sligo, Ireland", "latitude": 54.3898148, "longitude": -8.5279501, "rating": 4.3, "county": "Sligo"}]