[{"name": "Inver Tipperary Town", "address": "Town Lot, Tipperary, Ireland", "latitude": 52.47485210000001, "longitude": -8.1693686, "rating": 4.5, "county": "Tipperary"}, {"name": "Maxol Service Station Tipperary", "address": "Father Mathew St, Gortavalla, Tipperary, E34 ET27, Ireland", "latitude": 52.4744129, "longitude": -8.1543966, "rating": 4.4, "county": "Tipperary"}, {"name": "Applegreen", "address": "Davitt St, Town Lot, Tipperary, E34 P235, Ireland", "latitude": 52.4743773, "longitude": -8.1679239, "rating": 4.3, "county": "Tipperary"}, {"name": "Amber Bansha Road", "address": "Bansha Rd, Knockanrawley, Tipperary, Ireland", "latitude": 52.4718499, "longitude": -8.1542766, "rating": 4.7, "county": "Tipperary"}, {"name": "Silverstream Service Station", "address": "Limerick Rd, Murgasty, Tipperary, Ireland", "latitude": 52.476892, "longitude": -8.173325, "rating": 5, "county": "Tipperary"}, {"name": "Tipperary Town Plaza", "address": "Murgasty, Tipperary, E34 HY24, Ireland", "latitude": 52.4792676, "longitude": -8.1757967, "rating": 4.4, "county": "Tipperary"}, {"name": "Circle K", "address": "Barrack St, Ballinlough East, Bansha, Co. Tipperary, E34 X542, Ireland", "latitude": 52.4496276, "longitude": -8.066219, "rating": 3.7, "county": "Tipperary"}, {"name": "Toomey's Service Station", "address": "Monard, Acraboy, Arthurstown, Co. Tipperary, E34 XN35, Ireland", "latitude": 52.5109366, "longitude": -8.2232267, "rating": 4.5, "county": "Tipperary"}, {"name": "Monard", "address": "Monard, Tipperary, Ireland", "latitude": 52.5109995, "longitude": -8.2234194, "rating": 4, "county": "Tipperary"}, {"name": "Costcutter", "address": "Barrack St, Ballinlough East, Bansha, Co. Tipperary, E34 X542, Ireland", "latitude": 52.4496449, "longitude": -8.066227999999999, "rating": 5, "county": "Tipperary"}, {"name": "Lpg", "address": "Co., Carrigeen, Cowpark, Co. Tipperary, Ireland", "latitude": 52.3741971, "longitude": -7.934650199999999, "rating": 0, "county": "Tipperary"}, {"name": "Applegreen", "address": "Clonmel Rd, Townparks, Cahir, Co. Tipperary, E21 YH92, Ireland", "latitude": 52.3756983, "longitude": -7.921101600000001, "rating": 4.4, "county": "Tipperary"}, {"name": "Circle K", "address": "Junction 8, M8 Cashel, Waller's-Lot, Tipperary, E25 R722, Ireland", "latitude": 52.5091218, "longitude": -7.873105199999999, "rating": 3.3, "county": "Tipperary"}, {"name": "O'Donnell's Daybreak, Woodview Service Station Ltd.", "address": "Mitchelstown Rd, Carrigeen, Cahir, Co. Tipperary, Ireland", "latitude": 52.3741205, "longitude": -7.934709399999999, "rating": 4.6, "county": "Tipperary"}, {"name": "Certa", "address": "Certa Fuel, Cahir Rd, Spafield, Cashel, Co. Tipperary, Ireland", "latitude": 52.5084373, "longitude": -7.891436100000001, "rating": 4.1, "county": "Tipperary"}, {"name": "Clogheen Service Station", "address": "R668, Ballyboy West, Co. Tipperary, Ireland", "latitude": 52.28277749999999, "longitude": -7.994245500000001, "rating": 4.9, "county": "Tipperary"}, {"name": "Top Oil Cahir Carrolls Service Station", "address": "Cashel Rd, Killeigh, Cahir, Co. Tipperary, E21 K668, Ireland", "latitude": 52.3797624, "longitude": -7.9218196, "rating": 3.9, "county": "Tipperary"}, {"name": "Texaco", "address": "Dublin Rd, Moor, Cashel, Co. Tipperary, Ireland", "latitude": 52.520884, "longitude": -7.886903500000001, "rating": 4.2, "county": "Tipperary"}, {"name": "Texaco R688", "address": "Carrigeen, Co. Tipperary, Ireland", "latitude": 52.3745039, "longitude": -7.934467199999999, "rating": 4.6, "county": "Tipperary"}, {"name": "Amber Oil Service Station", "address": "Thurles Townparks, Thurles, Co. Tipperary, Ireland", "latitude": 52.6784201, "longitude": -7.819576099999999, "rating": 4.6, "county": "Tipperary"}, {"name": "Top Oil Eamonn Gleeson Tyres", "address": "Carrigeen Industrial Estate, Barrack St, Townparks, Cahir, Co. Tipperary, E21 CP78, Ireland", "latitude": 52.3741977, "longitude": -7.9318762, "rating": 5, "county": "Tipperary"}, {"name": "Tedcastles R689", "address": "Moneypark, Co. Tipperary, Ireland", "latitude": 52.46857010000001, "longitude": -7.691223, "rating": 4.1, "county": "Tipperary"}, {"name": "Top Oil Maher's Service Station", "address": "R688, B\u00f3thar Chaisil, Burgagery-Lands West, Clonmel, Co. Tipperary, E91 H6X4, Ireland", "latitude": 52.36350059999999, "longitude": -7.7097101, "rating": 4.2, "county": "Tipperary"}, {"name": "Moloneys Tara Filling Station", "address": "Bouladuff, Co. Tipperary, Ireland", "latitude": 52.72273149999999, "longitude": -7.912425700000001, "rating": 4.4, "county": "Tipperary"}, {"name": "T/A Sweeney'S Filling Station", "address": "Church Rd, Newport, Co. Tipperary, D02 X285, Ireland", "latitude": 52.7119884, "longitude": -8.4097624, "rating": 4.8, "county": "Tipperary"}, {"name": "Topaz Waterford Road", "address": "Waterford Rd, Burgagery-Lands East, Tipperary, Ireland", "latitude": 52.3605088, "longitude": -7.700320899999999, "rating": 4, "county": "Tipperary"}, {"name": "Top Oil Kedra Cahir - Cahir Oil", "address": "Kedrah, Cahir, Co. Tipperary, E21 Y623, Ireland", "latitude": 52.4030067, "longitude": -7.8960135, "rating": 0, "county": "Tipperary"}, {"name": "Circle K Abbey Road", "address": "2 Abbey Rd, Garryvicleheen, Thurles, Co. Tipperary, E41 KP03, Ireland", "latitude": 52.67551779999999, "longitude": -7.8273218, "rating": 4.3, "county": "Tipperary"}]