[{"name": "Arrow Petrol 24hr Filling Station", "address": "Co .Tyrone, 68 Main St, Trillick, Omagh BT78 3SX, United Kingdom", "latitude": 54.4503107, "longitude": -7.489671899999999, "rating": 4.9, "county": "Tyrone"}, {"name": "Circle K", "address": "Dungannon BT70 2DX, United Kingdom", "latitude": 54.4883606, "longitude": -7.1346009, "rating": 0, "county": "Tyrone"}, {"name": "Maxol Service Station, Symington", "address": "57 Moy Rd, Dungannon BT71 7DT, United Kingdom", "latitude": 54.4867411, "longitude": -6.7449224, "rating": 4.7, "county": "Tyrone"}, {"name": "Gortin Service Station", "address": "County Tyrone, 89 Main St, Omagh BT79 8PU, United Kingdom", "latitude": 54.59965829999999, "longitude": -7.3014909, "rating": 0, "county": "Tyrone"}, {"name": "Go Petrol Station", "address": "33 Morgans Hill Rd, Cookstown BT80 8HA, United Kingdom", "latitude": 54.652075, "longitude": -6.749068899999999, "rating": 1, "county": "Tyrone"}, {"name": "Fuel 24", "address": "Sixmilecross, Omagh BT79 9NF, United Kingdom", "latitude": 54.5575215, "longitude": -7.1169971, "rating": 5, "county": "Tyrone"}, {"name": "Culmore Service Station", "address": "Dromore Rd, Omagh BT78 1QZ, United Kingdom", "latitude": 54.5914625, "longitude": -7.3169549, "rating": 4.2, "county": "Tyrone"}, {"name": "Budget Fuels", "address": "53 Effernan Rd, Trillick, Omagh BT78 3SG, United Kingdom", "latitude": 54.4354628, "longitude": -7.4981037, "rating": 0, "county": "Tyrone"}, {"name": "Maxol Service Station, McConnell's", "address": "24 Mill St, Fintona, Omagh BT78 2BP, United Kingdom", "latitude": 54.4973196, "longitude": -7.314938700000001, "rating": 4.7, "county": "Tyrone"}, {"name": "Maxol Service Station, Cullinan's", "address": "17 Ballygawley Rd, Dungannon BT70 1TY, United Kingdom", "latitude": 54.50357109999999, "longitude": -6.7804115, "rating": 4.5, "county": "Tyrone"}, {"name": "Texaco", "address": "50 Newell Rd, Dungannon BT70 1EG, United Kingdom", "latitude": 54.5058744, "longitude": -6.780755099999999, "rating": 3.7, "county": "Tyrone"}, {"name": "Star", "address": "Omagh BT79 9AA, United Kingdom", "latitude": 54.6520844, "longitude": -7.0337776, "rating": 0, "county": "Tyrone"}, {"name": "Go Petrol Station", "address": "22 Moneymore Rd, Cookstown BT80 8EQ, United Kingdom", "latitude": 54.6521065, "longitude": -6.744654799999999, "rating": 4.3, "county": "Tyrone"}, {"name": "SPAR", "address": "42 Dungannon Rd, Cookstown BT80 9AE, United Kingdom", "latitude": 54.6246883, "longitude": -6.743156399999999, "rating": 4, "county": "Tyrone"}, {"name": "Gs Fuel Store", "address": "Newtownstewart, Omagh BT78 4AT, United Kingdom", "latitude": 54.7187302, "longitude": -7.375393599999999, "rating": 0, "county": "Tyrone"}, {"name": "McCrystals Filling Station", "address": "146 Ballinderry Bridge Rd, Cookstown BT80 0AY, United Kingdom", "latitude": 54.669909, "longitude": -6.5472445, "rating": 5, "county": "Tyrone"}, {"name": "Maxol Service Station", "address": "212 Ballynakilly Rd, delrx, Tyrone, Dungannon BT71 6HJ, United Kingdom", "latitude": 54.5011283, "longitude": -6.6589084, "rating": 4.2, "county": "Tyrone"}, {"name": "Glendale Service Station", "address": "78 Killyclogher Rd, Omagh BT79 7NZ, United Kingdom", "latitude": 54.6076829, "longitude": -7.248324799999999, "rating": 4.5, "county": "Tyrone"}, {"name": "Go Express Filling Station", "address": "50 Newell Rd, Dungannon BT70 1EG, United Kingdom", "latitude": 54.50581469999999, "longitude": -6.7806142, "rating": 4.5, "county": "Tyrone"}, {"name": "Emo Oil - Mountjoy Filling Station", "address": "Beltany Rd, Omagh BT78 5NL, United Kingdom", "latitude": 54.6423132, "longitude": -7.344678999999999, "rating": 4.3, "county": "Tyrone"}, {"name": "Classic Service Station", "address": "14 Dromore Rd, Omagh BT78 1QZ, United Kingdom", "latitude": 54.5966652, "longitude": -7.309426, "rating": 4.6, "county": "Tyrone"}, {"name": "Derg Valley Service Station", "address": "52 Strabane Rd, Castlederg BT81 7HZ, United Kingdom", "latitude": 54.7099731, "longitude": -7.576454999999999, "rating": 5, "county": "Tyrone"}, {"name": "Go", "address": "Omagh BT78 1RE, United Kingdom", "latitude": 54.5967478, "longitude": -7.30963, "rating": 4.5, "county": "Tyrone"}, {"name": "Greystone Filling Station", "address": "42A Legilly Rd, Dungannon BT70 1QG, United Kingdom", "latitude": 54.4677962, "longitude": -6.8329998, "rating": 5, "county": "Tyrone"}, {"name": "Cabragh Filling Station", "address": "230 Ballygawley Rd, Cabragh, Dungannon BT70 1TF, United Kingdom", "latitude": 54.4893996, "longitude": -6.917097399999999, "rating": 4, "county": "Tyrone"}, {"name": "Skea Filling Station", "address": "64 Pomeroy Rd, Pomeroy, Dungannon BT70 2TZ, United Kingdom", "latitude": 54.5457566, "longitude": -6.8365715, "rating": 3.7, "county": "Tyrone"}, {"name": "Emo Oil - Today's Extra Donaghmore", "address": "21 Pomeroy Rd, Donaghmore, Dungannon BT70 3HG, United Kingdom", "latitude": 54.534126, "longitude": -6.8171291, "rating": 5, "county": "Tyrone"}, {"name": "GALLAGHERS", "address": "41 Termon Rd, Carrickmore, Omagh BT79 9JR, United Kingdom", "latitude": 54.5918718, "longitude": -7.044001199999999, "rating": 4.8, "county": "Tyrone"}, {"name": "Burn Road Service Station", "address": "78 Burn Rd, Cookstown BT80 8FJ, United Kingdom", "latitude": 54.6475028, "longitude": -6.752168999999999, "rating": 4.4, "county": "Tyrone"}, {"name": "Kildress Filling Station", "address": "226 Drum Rd, Cookstown BT80 9HP, United Kingdom", "latitude": 54.6475358, "longitude": -6.8629704, "rating": 3.9, "county": "Tyrone"}, {"name": "Emo Curr Road", "address": "64 Curr Rd, Omagh BT79 0QW, United Kingdom", "latitude": 54.5236171, "longitude": -7.197769, "rating": 4.6, "county": "Tyrone"}, {"name": "Annagher Service Station", "address": "135 Annagher Rd, Coalisland, Dungannon BT71 4NE, United Kingdom", "latitude": 54.5424488, "longitude": -6.6923929, "rating": 4.9, "county": "Tyrone"}, {"name": "Dromore Service Station", "address": "10A Omagh Rd, Dromore, Omagh BT78 3AJ, United Kingdom", "latitude": 54.5144088, "longitude": -7.456657499999999, "rating": 4.7, "county": "Tyrone"}, {"name": "Hillview Service Station", "address": "33 Dungannon Rd, Moy, Dungannon BT71 7SP, United Kingdom", "latitude": 54.4502088, "longitude": -6.7018962, "rating": 4.7, "county": "Tyrone"}, {"name": "Omagh Fuels", "address": "15 Railway St, Strabane BT82 8EG, United Kingdom", "latitude": 54.8284041, "longitude": -7.465953799999999, "rating": 0, "county": "Tyrone"}, {"name": "Maxol Service Station, Martin's", "address": "185 Ballygawley Rd, Dungannon BT70 1RY, United Kingdom", "latitude": 54.4869627, "longitude": -6.8769376, "rating": 4.8, "county": "Tyrone"}, {"name": "Clogher Service Station", "address": "Augher Rd, Clogher BT76 0AD, United Kingdom", "latitude": 54.4144097, "longitude": -7.1648656, "rating": 4.5, "county": "Tyrone"}, {"name": "Hilltop Fuels", "address": "47 Chapel St, Cookstown BT80 8QB, United Kingdom", "latitude": 54.6405308, "longitude": -6.744474299999999, "rating": 4.6, "county": "Tyrone"}, {"name": "Hilltop Fuels", "address": "Greenmount Rd, Omagh BT79 0RD, United Kingdom", "latitude": 54.5071036, "longitude": -7.1716247, "rating": 4.4, "county": "Tyrone"}, {"name": "Drumnakilly Vivo", "address": "Spring Rd, Omagh BT79 0JY, United Kingdom", "latitude": 54.602616, "longitude": -7.1742101, "rating": 0, "county": "Tyrone"}, {"name": "Texaco", "address": "Drumgormal, Dungannon BT71 7PQ, United Kingdom", "latitude": 54.4798021, "longitude": -6.781548399999999, "rating": 5, "county": "Tyrone"}, {"name": "Daytoday", "address": "41 Termon Rd, Carrickmore, Omagh BT79 9JR, United Kingdom", "latitude": 54.5919308, "longitude": -7.044030299999999, "rating": 0, "county": "Tyrone"}, {"name": "Ballymagorry Service Station", "address": "442 Victoria Rd, Ballymagorry, Strabane BT82 0AT, United Kingdom", "latitude": 54.85903649999999, "longitude": -7.429705899999999, "rating": 4.3, "county": "Tyrone"}, {"name": "AS 24", "address": "Dromore Rd, Omagh BT78 1QZ, United Kingdom", "latitude": 54.59138549999999, "longitude": -7.3165662, "rating": 0, "county": "Tyrone"}, {"name": "Go Filling Station", "address": "140 Moneymore Rd, Cookstown BT80 9UU, United Kingdom", "latitude": 54.6640963, "longitude": -6.720730199999999, "rating": 4.7, "county": "Tyrone"}, {"name": "Mountjoy Filling Station", "address": "86 - 88 Beltany Rd, Omagh BT78 5NL, United Kingdom", "latitude": 54.64233669999999, "longitude": -7.3432571, "rating": 5, "county": "Tyrone"}, {"name": "Emo - Daly's Service Station Eglish", "address": "Eglish Rd, Eglish, Dungannon BT71 7DW, United Kingdom", "latitude": 54.4453747, "longitude": -6.7951986, "rating": 4.8, "county": "Tyrone"}, {"name": "Solo", "address": "Omagh BT78 1TS, United Kingdom", "latitude": 54.5505699, "longitude": -7.388150199999999, "rating": 0, "county": "Tyrone"}, {"name": "Tesco Petrol Station", "address": "Orritor Rd, Cookstown BT80 8BH, United Kingdom", "latitude": 54.648441, "longitude": -6.7519522, "rating": 4.5, "county": "Tyrone"}, {"name": "Buchanan Fuels", "address": "Unit 39 Gortrush Industrial Estate, Omagh BT78 5EJ, United Kingdom", "latitude": 54.6051925, "longitude": -7.322978, "rating": 0, "county": "Tyrone"}, {"name": "Star", "address": "103 Main St, Clogher BT76 0AA, United Kingdom", "latitude": 54.4112458, "longitude": -7.171397400000001, "rating": 3.5, "county": "Tyrone"}, {"name": "Marshall Oil", "address": "35 Augher Point Rd, Gortaclare, Omagh BT79 0XX, United Kingdom", "latitude": 54.5257228, "longitude": -7.2211455, "rating": 0, "county": "Tyrone"}, {"name": "Asda Petrol", "address": "Sweep Rd, Cookstown BT80 8JR, United Kingdom", "latitude": 54.6336621, "longitude": -6.744985799999999, "rating": 4.3, "county": "Tyrone"}, {"name": "Star Culmore", "address": "Omagh BT78 5AF, United Kingdom", "latitude": 54.5913481, "longitude": -7.316513100000001, "rating": 0, "county": "Tyrone"}, {"name": "Clabby Service Station", "address": "124 Clabby Rd, Clabby, Fivemiletown BT75 0QY, United Kingdom", "latitude": 54.398871, "longitude": -7.367291000000001, "rating": 4.4, "county": "Tyrone"}, {"name": "Asda Petrol Station", "address": "30 Dromore Rd, Omagh BT78 1QZ, United Kingdom", "latitude": 54.5951934, "longitude": -7.3118205, "rating": 4.5, "county": "Tyrone"}, {"name": "Riverside Service Station", "address": "8 Main St, Castlederg BT81 7AY, United Kingdom", "latitude": 54.70653, "longitude": -7.5925239, "rating": 4.7, "county": "Tyrone"}, {"name": "Campsie Road Service Station", "address": "34 Campsie Rd, Omagh BT79 0AG, United Kingdom", "latitude": 54.6011125, "longitude": -7.2929727, "rating": 4.5, "county": "Tyrone"}, {"name": "McHugh's Oil", "address": "15 Railway St, Strabane BT82 8EG, United Kingdom", "latitude": 54.8284041, "longitude": -7.465953799999999, "rating": 4.7, "county": "Tyrone"}, {"name": "Emo - Glenwood Filling Station", "address": "1 Mossfield Rd, Irvinestown, Enniskillen BT94 1GG, United Kingdom", "latitude": 54.4666082, "longitude": -7.625894299999999, "rating": 4.4, "county": "Tyrone"}]