[{"name": "Circle K", "address": "Dungannon BT70 2DX, United Kingdom", "latitude": 54.4883606, "longitude": -7.1346009, "rating": 0}, {"name": "Arrow Petrol 24hr Filling Station", "address": "Co .Tyrone, 68 Main St, Trillick, Omagh BT78 3SX, United Kingdom", "latitude": 54.4503107, "longitude": -7.489671899999999, "rating": 4.9}, {"name": "Maxol Service Station, Symington", "address": "57 Moy Rd, Dungannon BT71 7DT, United Kingdom", "latitude": 54.4867411, "longitude": -6.7449224, "rating": 4.7}, {"name": "Maxol Service Station", "address": "212 Ballynakilly Rd, delrx, Tyrone, Dungannon BT71 6HJ, United Kingdom", "latitude": 54.5011283, "longitude": -6.6589084, "rating": 4.2}, {"name": "Budget Fuels", "address": "53 Effernan Rd, Trillick, Omagh BT78 3SG, United Kingdom", "latitude": 54.4354628, "longitude": -7.4981037, "rating": 0}, {"name": "Maxol Service Station, Cullinan's", "address": "17 Ballygawley Rd, Dungannon BT70 1TY, United Kingdom", "latitude": 54.50357109999999, "longitude": -6.7804115, "rating": 4.5}, {"name": "Go Petrol Station", "address": "33 Morgans Hill Rd, Cookstown BT80 8HA, United Kingdom", "latitude": 54.652075, "longitude": -6.749068899999999, "rating": 1}, {"name": "Fuel 24", "address": "Sixmilecross, Omagh BT79 9NF, United Kingdom", "latitude": 54.5575215, "longitude": -7.1169971, "rating": 5}, {"name": "Emo Rockmount Service Station", "address": "32 Rathfriland Rd, Newry BT34 1JZ, United Kingdom", "latitude": 54.1854605, "longitude": -6.3227718, "rating": 3.8}, {"name": "Culmore Service Station", "address": "Dromore Rd, Omagh BT78 1QZ, United Kingdom", "latitude": 54.5914625, "longitude": -7.3169549, "rating": 4.2}, {"name": "Texaco", "address": "50 Newell Rd, Dungannon BT70 1EG, United Kingdom", "latitude": 54.5058744, "longitude": -6.780755099999999, "rating": 3.7}, {"name": "Gs Fuel Store", "address": "Newtownstewart, Omagh BT78 4AT, United Kingdom", "latitude": 54.7187302, "longitude": -7.375393599999999, "rating": 0}, {"name": "Glendale Service Station", "address": "78 Killyclogher Rd, Omagh BT79 7NZ, United Kingdom", "latitude": 54.6076829, "longitude": -7.248324799999999, "rating": 4.5}, {"name": "Classic Service Station", "address": "14 Dromore Rd, Omagh BT78 1QZ, United Kingdom", "latitude": 54.5966652, "longitude": -7.309426, "rating": 4.6}, {"name": "Emo Oil - Today's Extra Donaghmore", "address": "21 Pomeroy Rd, Donaghmore, Dungannon BT70 3HG, United Kingdom", "latitude": 54.534126, "longitude": -6.8171291, "rating": 5}, {"name": "Derg Valley Service Station", "address": "52 Strabane Rd, Castlederg BT81 7HZ, United Kingdom", "latitude": 54.7099731, "longitude": -7.576454999999999, "rating": 5}, {"name": "Skea Filling Station", "address": "64 Pomeroy Rd, Pomeroy, Dungannon BT70 2TZ, United Kingdom", "latitude": 54.5457566, "longitude": -6.8365715, "rating": 3.7}, {"name": "Dromore Service Station", "address": "10A Omagh Rd, Dromore, Omagh BT78 3AJ, United Kingdom", "latitude": 54.5144088, "longitude": -7.456657499999999, "rating": 4.7}, {"name": "Omagh Fuels", "address": "15 Railway St, Strabane BT82 8EG, United Kingdom", "latitude": 54.8284041, "longitude": -7.465953799999999, "rating": 0}, {"name": "Hilltop Fuels", "address": "Greenmount Rd, Omagh BT79 0RD, United Kingdom", "latitude": 54.5071036, "longitude": -7.1716247, "rating": 4.4}, {"name": "Emo Oil - Mountjoy Filling Station", "address": "Beltany Rd, Omagh BT78 5NL, United Kingdom", "latitude": 54.6423132, "longitude": -7.344678999999999, "rating": 4.3}, {"name": "Mountjoy Filling Station", "address": "86 - 88 Beltany Rd, Omagh BT78 5NL, United Kingdom", "latitude": 54.64233669999999, "longitude": -7.3432571, "rating": 5}, {"name": "Campsie Road Service Station", "address": "34 Campsie Rd, Omagh BT79 0AG, United Kingdom", "latitude": 54.6011125, "longitude": -7.2929727, "rating": 4.5}, {"name": "Asda Petrol Station", "address": "30 Dromore Rd, Omagh BT78 1QZ, United Kingdom", "latitude": 54.5951934, "longitude": -7.3118205, "rating": 4.5}, {"name": "Riverside Service Station", "address": "8 Main St, Castlederg BT81 7AY, United Kingdom", "latitude": 54.70653, "longitude": -7.5925239, "rating": 4.7}, {"name": "Solo", "address": "Omagh BT78 4JZ, United Kingdom", "latitude": 54.7329502, "longitude": -7.422144400000001, "rating": 0}, {"name": "Dolan's Nisa Strabane", "address": "19 Lifford Rd, Strabane BT82 8EP, United Kingdom", "latitude": 54.83050679999999, "longitude": -7.476855599999999, "rating": 4.4}, {"name": "Top Oil Ballinamona The Trading Post", "address": "R741 Ballinamona, Ballaghkeen, Co. Wexford, Y21 W1R8, Ireland", "latitude": 52.45377209999999, "longitude": -6.4010245, "rating": 4.2}, {"name": "Applegreen", "address": "Ryland Wood, Ballinapark, Bunclody, Co. Wexford, Y21 Y6V6, Ireland", "latitude": 52.654653, "longitude": -6.649903, "rating": 4.2}, {"name": "Vivo", "address": "164 Clanabogan Rd, Omagh BT78 1ST, United Kingdom", "latitude": 54.5506411, "longitude": -7.3880709, "rating": 5}, {"name": "SPAR Cohannon", "address": "212 Ballynakilly Rd, delrx, Tyrone, Dungannon BT71 6HJ, United Kingdom", "latitude": 54.5011283, "longitude": -6.6589084, "rating": 3.4}, {"name": "Esso", "address": "12 St Peter's Rd, Whitehall, Dublin 12, Ireland", "latitude": 53.31046449999999, "longitude": -6.3256313, "rating": 4}, {"name": "Maxol Service Station, Litter's", "address": "24 Dungannon Rd, Portadown, Craigavon BT62 1LF, United Kingdom", "latitude": 54.43435849999999, "longitude": -6.4653632, "rating": 4.7}, {"name": "Nisa Local", "address": "21 Morgans Hill Rd, Cookstown BT80 8HA, United Kingdom", "latitude": 54.6520896, "longitude": -6.748981499999999, "rating": 4}, {"name": "Emo - Clerkin's Service Station", "address": "Madavagh, Lettermacaward, Co. Donegal, Ireland", "latitude": 54.85615199999999, "longitude": -8.3058099, "rating": 5}, {"name": "Armoy Filling Station", "address": "160 Hillside Rd, Armoy, Ballymoney BT53 8RH, United Kingdom", "latitude": 55.1318358, "longitude": -6.3255211, "rating": 4.5}, {"name": "Sainsbury's Petrol Station", "address": "Unit 14, The Oaks Centre, Oaks Rd, Dungannon BT71 4NA, United Kingdom", "latitude": 54.5131431, "longitude": -6.7635779, "rating": 2.4}, {"name": "Esso", "address": "Thomas Traynor Rd, Rathdrinagh, Tullow, Co. Carlow, Ireland", "latitude": 53.665343, "longitude": -6.528941, "rating": 3}, {"name": "Applegreen Lifford", "address": "Letterkenny Rd, Lifford, Co. Donegal, F93 R9FH, Ireland", "latitude": 54.8364917, "longitude": -7.4884754, "rating": 4.5}, {"name": "Pond Park Service Station", "address": "1A Pond Park Rd, Lisburn BT28 3LH, United Kingdom", "latitude": 54.5214836, "longitude": -6.059728799999999, "rating": 4}, {"name": "Esso N4", "address": "Redcowfarm, Dublin, Ireland", "latitude": 53.3530537, "longitude": -6.363779999999999, "rating": 4}, {"name": "Emo Ballinlough Service Station", "address": "Ballyhaunis Road, Ballinlough, Co. Roscommon, Ireland", "latitude": 53.7434272, "longitude": -8.6391549, "rating": 4.4}, {"name": "P J McCrory Gortin Service Station", "address": "89 Main Street, Gortin BT79 8PU, United Kingdom", "latitude": 54.7165543, "longitude": -7.2285724, "rating": 5}, {"name": "Applegreen", "address": "Mackney, Ballinasloe, Co. Galway, H53 PC44, Ireland", "latitude": 53.3195816, "longitude": -8.2431767, "rating": 4.2}, {"name": "Applegreen", "address": "R178, Demesne, Dundalk, Co. Louth, Ireland", "latitude": 53.9998769, "longitude": -6.4160906, "rating": 4}, {"name": "Jennings Fuels & Lubricants Ltd.", "address": "48 Drumwhinny Rd, Kesh, Enniskillen BT93 1TB, United Kingdom", "latitude": 54.5165875, "longitude": -7.716022799999999, "rating": 4.7}, {"name": "Top Oil Sharkey's Service Station", "address": "Gweedore Road, Dunglow, Dungloe, Co. Donegal, F94 NP2X, Ireland", "latitude": 54.9557108, "longitude": -8.359089599999999, "rating": 4.6}, {"name": "Maxol Service Station, McGonigle's", "address": "Muff, Co. Donegal, Ireland", "latitude": 55.06699399999999, "longitude": -7.269401299999998, "rating": 4.4}, {"name": "Applegreen", "address": "Main St, Kilcullenbridge, Kilcullen, Co. Kildare, R56 YE39, Ireland", "latitude": 53.12984720000001, "longitude": -6.7458452, "rating": 4.2}, {"name": "Wallaces Garage", "address": "Roscrea Rd, Borrisbeg, Templemore, Co. Tipperary, E41 YC80, Ireland", "latitude": 52.8072768, "longitude": -7.831203299999999, "rating": 4.5}, {"name": "Centra Ballyshannon", "address": "Ballyshannon Service Station, Assaroe RD, Townparks, Ballyshannon, Co. Donegal, F94 KCX7, Ireland", "latitude": 54.50003719999999, "longitude": -8.1918008, "rating": 3.6}, {"name": "Fannin's, Clogher", "address": "69-75 Main St, Clogher BT76 0AA, United Kingdom", "latitude": 54.4115123, "longitude": -7.171778600000001, "rating": 4.6}, {"name": "Asda Cookstown Superstore", "address": "Sweep Rd, Cookstown BT80 8JR, United Kingdom", "latitude": 54.6325361, "longitude": -6.7439613, "rating": 4.2}, {"name": "Centra Belturbet", "address": "Corporation Lands, Erne Hill, Co. Cavan, H14 WP29, Ireland", "latitude": 54.098959, "longitude": -7.430968, "rating": 3.9}, {"name": "Fintona Auto Spares", "address": "43 Mill St, Fintona, Omagh BT78 2BP, United Kingdom", "latitude": 54.4971718, "longitude": -7.314474099999999, "rating": 4.7}, {"name": "Centra Mullagh", "address": "Ardlo Manor, Rantavan, Co. Cavan, A82 T8Y2, Ireland", "latitude": 53.812196, "longitude": -6.949413, "rating": 3.8}, {"name": "Centra Emyvale", "address": "Main St, Derrygassan Upper, Monaghan, H18 E772, Ireland", "latitude": 54.339491, "longitude": -6.959629, "rating": 4.2}, {"name": "Asda Strabane Superstore", "address": "2 Branch Rd, Strabane BT82 8EQ, United Kingdom", "latitude": 54.8310651, "longitude": -7.4684628, "rating": 4}]