[{"name": "Circle K", "address": "Manor St, Waterford, Ireland", "latitude": 52.25354, "longitude": -7.114725, "rating": 3}, {"name": "Maxol", "address": "Military Rd, Waterford, Ireland", "latitude": 52.2603312, "longitude": -7.1231418, "rating": 4.4}, {"name": "Certa", "address": "Ardkeen Retail Park, Ardkeen, Co. Waterford, X91 HY7Y, Ireland", "latitude": 52.2430308, "longitude": -7.0858895, "rating": 4.5}, {"name": "Maxol Service Station Kingsmeadow", "address": "Kingsmeadow, Cork Rd, Waterford, X91 EY4E, Ireland", "latitude": 52.2464722, "longitude": -7.1278954, "rating": 4.2}, {"name": "Circle K", "address": "7 Dunmore Rd, Cove, Waterford, X91 A52P, Ireland", "latitude": 52.2485592, "longitude": -7.0879933, "rating": 4}, {"name": "Maxol Service Station Dunmore Road", "address": "Dunmore Rd, Collins Avenue, Waterford, X91 YPW7, Ireland", "latitude": 52.2423145, "longitude": -7.069308299999999, "rating": 4}, {"name": "Top Oil Park Road Service Station", "address": "Park Rd, Waterford, X91 KPE0, Ireland", "latitude": 52.25674919999999, "longitude": -7.102233000000001, "rating": 4.1}, {"name": "Applegreen", "address": "Cork Rd, Butlerstown North, Waterford, X91 VEH7, Ireland", "latitude": 52.2414536, "longitude": -7.1701446, "rating": 4.1}, {"name": "Great Gas", "address": "Killure Rd, Waterford City, Co. Waterford, Ireland", "latitude": 52.2377567, "longitude": -7.1055291, "rating": 3.9}, {"name": "Circle K", "address": "Cork Rd, Crystal, Co. Waterford, Ireland", "latitude": 52.24522959999999, "longitude": -7.1296867, "rating": 4.4}, {"name": "Applegreen", "address": "Dunmore Rd, Waterford, X91 NVW6, Ireland", "latitude": 52.2385004, "longitude": -7.063844199999999, "rating": 4}, {"name": "Texaco", "address": "Waterford, Ireland", "latitude": 52.24274380000001, "longitude": -7.156115199999999, "rating": 4.4}, {"name": "Certa", "address": "Kilbarry, Ballybeg, Waterford, X91 XY73, Ireland", "latitude": 52.2376107, "longitude": -7.142403, "rating": 3.5}, {"name": "Texaco", "address": "Dock Rd, Ferrybank, Waterford, X91 HTW5, Ireland", "latitude": 52.2652636, "longitude": -7.1082636, "rating": 4.2}, {"name": "Inver Waterford", "address": "Paddy Browne's Rd, Lissduggan, Waterford, X91 RW2T, Ireland", "latitude": 52.25032580000001, "longitude": -7.138549800000001, "rating": 4.2}, {"name": "SelectAsia Waterford", "address": "Opposite to SETU, Cork Rd, Waterford, X91 F3AX, Ireland", "latitude": 52.2445332, "longitude": -7.1422175, "rating": 5}, {"name": "Applegreen", "address": "Cleaboy Rd, Waterford, X91 RTV7, Ireland", "latitude": 52.2564886, "longitude": -7.1416194, "rating": 4.3}, {"name": "Daybreak", "address": "Cork Road, Waterford, X91 AKV7, Ireland", "latitude": 52.242583, "longitude": -7.156077, "rating": 4.4}, {"name": "Top Oil Waterford Depot", "address": "R448, Newrath, Waterford, X91 C838, Ireland", "latitude": 52.2735102, "longitude": -7.1364547, "rating": 5}, {"name": "Maxol", "address": "Belmont Rd, Ferrybank, Co. Kilkenny, X91 W9DT, Ireland", "latitude": 52.2706741, "longitude": -7.0918416, "rating": 4.4}, {"name": "Top Oil Pickardstown", "address": "Waterford Rd, Ballinattin, Tramore, Co. Waterford, X91 C91V, Ireland", "latitude": 52.1756734, "longitude": -7.1380238, "rating": 4.4}, {"name": "Campus Dunmore Rd", "address": "Dunmore Rd, Ballinkina, Waterford, Ireland", "latitude": 52.2138117, "longitude": -7.0315509, "rating": 0}, {"name": "Applegreen", "address": "Waterford Rd, Crobally Lower, Tramore, Co. Waterford, X91 XH59, Ireland", "latitude": 52.172299, "longitude": -7.140943399999999, "rating": 4.3}, {"name": "Independent Ballinkina", "address": "Ballinkina, Co. Waterford, Ireland", "latitude": 52.2138409, "longitude": -7.031532599999999, "rating": 0}, {"name": "Tramore Service Station", "address": "Crobally Lower, Tramore, Co. Waterford, X91 XH59, Ireland", "latitude": 52.1706167, "longitude": -7.1420895, "rating": 4.6}, {"name": "JayBees Your Local Shop", "address": "Jaybees Shop Ballinakina, Dunmore E Rd, Co. Waterford, X91 K85D, Ireland", "latitude": 52.21378070000001, "longitude": -7.0317142, "rating": 4.8}, {"name": "Redbridge Auto Stop", "address": "Newrath, Newrath Road, Co. Kilkenny, X91 KHY9, Ireland", "latitude": 52.279082, "longitude": -7.1411164, "rating": 4.4}, {"name": "Swift Oil - Gala Kilmeaden", "address": "Main Street, Adamstown, Kilmeaden, Co. Waterford, Ireland", "latitude": 52.2342009, "longitude": -7.2442317, "rating": 4.5}, {"name": "Certa", "address": "Summerhill, Tramore East, Tramore, Co. Waterford, X91 PC56, Ireland", "latitude": 52.1640692, "longitude": -7.1606255, "rating": 4.5}, {"name": "Beary's Cross Petrol Station", "address": "Lackandarra Upper, Co. Waterford, Ireland", "latitude": 52.1848353, "longitude": -7.694768499999999, "rating": 4.3}, {"name": "Griffins Garage Limited", "address": "Currabaha East, Co. Waterford, X42 CD45, Ireland", "latitude": 52.1925544, "longitude": -7.448348200000001, "rating": 4.5}, {"name": "Inver Slieverue Junction", "address": "Inver, Junction, Slieverue, Co. Kilkenny, X91 E6CY, Ireland", "latitude": 52.2870836, "longitude": -7.061232400000001, "rating": 4.3}, {"name": "John Kinsella Car Wash", "address": "Kilmacow, Co. Kilkenny, Ireland", "latitude": 52.304701, "longitude": -7.170338, "rating": 0}, {"name": "Applegreen", "address": "E30, Lemybrien, Kilmacthomas, Co. Waterford, X42 CV05, Ireland", "latitude": 52.1633864, "longitude": -7.525665500000001, "rating": 4.4}, {"name": "Circle K Gallowshill", "address": "Kilrush Roundabout, Gallowshill, Waterford, X35 VX06, Ireland", "latitude": 52.092456, "longitude": -7.634976999999998, "rating": 3.4}, {"name": "Top Oil Raheen New Ross Service Station", "address": "Waterford Rd, Raheen, New Ross, Co. Kilkenny, Y34 WP71, Ireland", "latitude": 52.3889249, "longitude": -6.961044900000001, "rating": 4.7}, {"name": "Morris Oil", "address": "Kilmacow, Co. Kilkenny, Ireland", "latitude": 52.30477, "longitude": -7.1707, "rating": 4.7}, {"name": "Top Oil Healy's Service Station", "address": "N 72, Ballymacmague, Co. Waterford, X35 C922, Ireland", "latitude": 52.1085928, "longitude": -7.6675771, "rating": 4.5}, {"name": "Doocey's Station", "address": "Dooceys Service Station, Curtiswood, Ballymacarbry, Co. Waterford, Ireland", "latitude": 52.2680193, "longitude": -7.7224522, "rating": 3.7}, {"name": "Morris Oil", "address": "Curtiswood, Co. Waterford, Ireland", "latitude": 52.2680589, "longitude": -7.7222877, "rating": 3.7}]