[{"name": "Emo Irishtown Service Station", "address": "Ashe Rd, Rathgowan, Mullingar, Co. Westmeath, Ireland", "latitude": 53.531369, "longitude": -7.3693126, "rating": 4.3}, {"name": "Circle K", "address": "N4 Service Station East, N 4, Clongowney, Co. Westmeath, N91 HV25, Ireland", "latitude": 53.5208509, "longitude": -7.2896648, "rating": 4.1}, {"name": "Circle K M6 Athlone", "address": "Fassagh, Co. Westmeath, Ireland", "latitude": 53.4006572, "longitude": -7.8277562, "rating": 4.1}, {"name": "Kilmartin N6 Service Station", "address": "Dublin Rd, Kilmacuagh (Castlemaine), Athlone, Co. Westmeath, N37 E5CA, Ireland", "latitude": 53.41071960000001, "longitude": -7.893467899999999, "rating": 4.3}, {"name": "Spar Corrib Oil (Texaco)", "address": "Patrick St, Mullingar, Co. Westmeath, Ireland", "latitude": 53.5219231, "longitude": -7.3573783, "rating": 3.9}, {"name": "Circle K", "address": "Ballymahon Road, Athlone, Co. Westmeath, N37 X0V6, Ireland", "latitude": 53.43381240000001, "longitude": -7.914909300000001, "rating": 4.3}, {"name": "Certa", "address": "Ashe Rd, Commons, Mullingar, Co. Westmeath, N91 D370, Ireland", "latitude": 53.5279293, "longitude": -7.353044699999999, "rating": 4.3}, {"name": "Topaz", "address": "Rathconnell, Mullingar, Co. Westmeath, Ireland", "latitude": 53.5508138, "longitude": -7.2755514, "rating": 0}, {"name": "Rose Filling Station", "address": "Garraree, Mullingar, Co. Westmeath, Ireland", "latitude": 53.5816242, "longitude": -7.308740199999999, "rating": 1}, {"name": "walderstown petrol station", "address": "R390, Pishanagh, Co. Westmeath, Ireland", "latitude": 53.4672995, "longitude": -7.7920626, "rating": 3}, {"name": "Tesco", "address": "Ashe Rd, Commons, Mullingar, Co. Westmeath, N91 DKE3, Ireland", "latitude": 53.5280257, "longitude": -7.3530703, "rating": 0}, {"name": "Texaco Service Station & N6 Centre", "address": "Dublin Rd, Kilmacuagh (Castlemaine), Athlone, Co. Westmeath, Ireland", "latitude": 53.41071900000001, "longitude": -7.893769600000001, "rating": 3.9}, {"name": "Grove Service Station", "address": "Baylough, Athlone, Co. Westmeath, Ireland", "latitude": 53.4243979, "longitude": -7.9633777, "rating": 3.9}, {"name": "Texaco", "address": "Robinstown, Mullingar, Co. Westmeath, Ireland", "latitude": 53.540276, "longitude": -7.342654, "rating": 3.9}, {"name": "Top Oil Glasson Spollen's Supermarket", "address": "N 55, Glassan, Athlone, Co. Westmeath, N37 E9X9, Ireland", "latitude": 53.4733191, "longitude": -7.8639036, "rating": 4.5}, {"name": "Rathconnell Service Station", "address": "Rathconnell, Mullingar, Co. Westmeath, Ireland", "latitude": 53.5508138, "longitude": -7.2755514, "rating": 4.5}, {"name": "Emo Oil - Feerick's Truck Stop", "address": "Main Street, Rathowen, Co. Westmeath, Ireland", "latitude": 53.65669, "longitude": -7.520889, "rating": 4.4}, {"name": "Top Oil Athlone EK Fuels", "address": "Brideswell Street, Aghacocara, Athlone, Co. Westmeath, N37 C8H4, Ireland", "latitude": 53.4201278, "longitude": -7.9233567, "rating": 4.4}, {"name": "McCarthy's Centra - Circle K Express Moate", "address": "Athlone Rd, Aghanargit, Moate, Co. Westmeath, Ireland", "latitude": 53.3954584, "longitude": -7.7336038, "rating": 3.9}, {"name": "Maxol Service Station Mullingar", "address": "Dublin Rd, Bellview, Mullingar, Co. Westmeath, N91 N5HW, Ireland", "latitude": 53.5260641, "longitude": -7.3326173, "rating": 4.5}, {"name": "Top Oil Rathconnell Service Station", "address": "Delvin Road, Loughagar Beg, Mullingar, Co. Westmeath, N91 E6RT, Ireland", "latitude": 53.55091669999999, "longitude": -7.275561600000001, "rating": 4}, {"name": "Texaco R446", "address": "Creggan Upper, Athlone, Co. Westmeath, Ireland", "latitude": 53.41064369999999, "longitude": -7.893258999999999, "rating": 5}, {"name": "Rustic Oil Filling Station", "address": "Lynn Business Units, Zone A, Mullingar Business Park, Mullingar, Co. Westmeath, N91 H7RN, Ireland", "latitude": 53.52026710000001, "longitude": -7.344945099999999, "rating": 3}, {"name": "Monksland Service Station", "address": "Old Galway Rd, Monksland, Athlone, Co. Westmeath, Ireland", "latitude": 53.42139239999999, "longitude": -7.973829599999999, "rating": 4.4}, {"name": "Irishtown Filling Station & Newsagent", "address": "Irishstown, Co. Westmeath, Ireland", "latitude": 53.53898050000001, "longitude": -7.373334300000001, "rating": 5}, {"name": "Service Station", "address": "R390, Walderstown, Mullingar, Co. Westmeath, Ireland", "latitude": 53.467273, "longitude": -7.7920183, "rating": 4}, {"name": "Top Oil Mullingar Service Station", "address": "Longford Rd, Commons, Mullingar, Co. Westmeath, N91 XWH9, Ireland", "latitude": 53.5328999, "longitude": -7.3493834, "rating": 2.6}, {"name": "Applegreen", "address": "Coosan Rd, Clonbrusk, Athlone, Co. Westmeath, N37 V1W7, Ireland", "latitude": 53.4328537, "longitude": -7.9392403, "rating": 4}, {"name": "Top Oil Ballynacarrigy Service Station", "address": "Moranstown, Ballynacarrigy, Co. Westmeath, N91 A9WX, Ireland", "latitude": 53.58251689999999, "longitude": -7.5368583, "rating": 4}, {"name": "N4 Service Station West", "address": "Dublin Rd, Clongawny, Mullingar, Co. Westmeath, Ireland", "latitude": 53.5195781, "longitude": -7.2890935, "rating": 5}, {"name": "GreatGas - Daly's Filling Station", "address": "Lynn Rd, Ballinderry, Mullingar, Co. Westmeath, N91 DA3W, Ireland", "latitude": 53.51924289999999, "longitude": -7.340535099999999, "rating": 3.4}, {"name": "Topaz", "address": "Tullamore Rd, Kilbeggan, Co. Westmeath, N91 D322, Ireland", "latitude": 53.363054, "longitude": -7.4965894, "rating": 0}, {"name": "GreatGas - William's Filling Station", "address": "Kells Road Moyleroe, Delvin, Co. Westmeath, Ireland", "latitude": 53.623301, "longitude": -7.080532, "rating": 4.1}, {"name": "Circle K - M6 Kilbeggan", "address": "Circle K, M6 Service Centre, Tullamore Rd, Kilbeggan, Co. Westmeath, N91 FNV0, Ireland", "latitude": 53.36310289999999, "longitude": -7.496750399999999, "rating": 4.4}, {"name": "Texaco", "address": "Galway Rd, Bellaugh, Athlone, Co. Westmeath, Ireland", "latitude": 53.42443, "longitude": -7.963367999999999, "rating": 4.2}, {"name": "Texaco", "address": "Ballinalack, Co. Westmeath, Ireland", "latitude": 53.625816, "longitude": -7.4666804, "rating": 4.3}, {"name": "Top Oil Castlepollard Service Station", "address": "R394 Mullingar Rd, Kinturk Ave, Kinturk Demesne, Castlepollard, Co. Westmeath, N91 FK3T, Ireland", "latitude": 53.67241509999999, "longitude": -7.3071707, "rating": 4.3}, {"name": "corrib oil", "address": "Golden Island, Ankers Bower, Athlone, Co. Westmeath, Ireland", "latitude": 53.4193349, "longitude": -7.9312451, "rating": 5}, {"name": "Circle K Express", "address": "Roscommon Rd, Bogganfin, Athlone, Co. Westmeath, Ireland", "latitude": 53.42675879999999, "longitude": -7.960026999999999, "rating": 4.1}, {"name": "Texaco", "address": "Garraree, Co. Westmeath, Ireland", "latitude": 53.58201, "longitude": -7.308590000000001, "rating": 4.5}, {"name": "Circle K Express", "address": "Old Galway Rd, Monksland, Athlone, Co. Westmeath, N37 N611, Ireland", "latitude": 53.4214589, "longitude": -7.973887400000001, "rating": 4}, {"name": "Maxol Service Station Ballymahon", "address": "Athlone Rd, Creevagh Beg, Rathmore, Co. Longford, N39 KH95, Ireland", "latitude": 53.5607252, "longitude": -7.762470700000001, "rating": 4.5}, {"name": "Corrib oil", "address": "Cornamaddy, Athlone, Co. Westmeath, Ireland", "latitude": 53.4338426, "longitude": -7.914888899999999, "rating": 4.5}, {"name": "Applegreen", "address": "Dublin Rd, Petitswood, Mullingar, Co. Westmeath, N91 DE7V, Ireland", "latitude": 53.52550369999999, "longitude": -7.319706899999999, "rating": 4.2}, {"name": "Morans service station gala", "address": "R395, Co. Westmeath, Ireland", "latitude": 53.6724742, "longitude": -7.288708199999999, "rating": 5}, {"name": "Circle K", "address": "Brideswell Street, Dublin Rd, Aghacocara, Athlone, Co. Westmeath, N37 N2T6, Ireland", "latitude": 53.42063, "longitude": -7.925833, "rating": 4.1}, {"name": "Texaco N62", "address": "Ballynahown, Co. Westmeath, Ireland", "latitude": 53.35020979999999, "longitude": -7.848396899999999, "rating": 4.4}, {"name": "Circle K Westbound N4", "address": "By-Pass, Marlinstown Bog, Mullingar, Co. Westmeath, Ireland", "latitude": 53.5196528, "longitude": -7.2894561, "rating": 4.1}, {"name": "Ryans Service Station", "address": "Main St, Ballykilmore, Tyrrellspass, Co. Westmeath, N91 W422, Ireland", "latitude": 53.3863334, "longitude": -7.3795894, "rating": 4.2}, {"name": "amber", "address": "R446, Tyrrellspass, Co. Westmeath, Ireland", "latitude": 53.3903829, "longitude": -7.3739955, "rating": 0}, {"name": "Emo N52", "address": "Tyrrellspass, Co. Westmeath, Ireland", "latitude": 53.39035, "longitude": -7.37398, "rating": 4.1}, {"name": "Pat McGovern", "address": "L1820, Multyfarnham, Co. Westmeath, Ireland", "latitude": 53.62396649999999, "longitude": -7.391939099999999, "rating": 5}, {"name": "Top Oil Buckleys Service Station", "address": "Millmount Shopping Centre, Ballinderry, Mullingar, Co. Westmeath, Ireland", "latitude": 53.5186203, "longitude": -7.3344192, "rating": 1}, {"name": "Applegreen", "address": "Dublin Road, Kilbeggan, Co. Westmeath, N E2TA, 91, Ireland", "latitude": 53.3689826, "longitude": -7.480366900000001, "rating": 4.3}, {"name": "Emo Oil - Weston Fuels Ltd", "address": "Heathfield, Kinnegad, Co. Westmeath, Ireland", "latitude": 53.456549, "longitude": -7.104630999999999, "rating": 4}, {"name": "Ballinalack Applegreen", "address": "N4, Ballinalack, Co. Westmeath, N91 RX0W, Ireland", "latitude": 53.6276808, "longitude": -7.4688618, "rating": 4.5}, {"name": "A. Browne Oil", "address": "Dublin Rd, Bawnoges, Moate, Co. Westmeath, Ireland", "latitude": 53.3960713, "longitude": -7.685624100000001, "rating": 4.7}, {"name": "Obama's hardware Store", "address": "Kilmartin N6 Centre, Dublin Rd, Kilmacuagh (Castlemaine), Athlone, Co. Westmeath, Ireland", "latitude": 53.4108575, "longitude": -7.893752199999999, "rating": 5}, {"name": "Mulligans Service Station and Grocery londis", "address": "2 Roscommon Rd, Fairlands, Bogganfin, Athlone, Co. Westmeath, N37 P6Y9, Ireland", "latitude": 53.4267633, "longitude": -7.9602194, "rating": 4}, {"name": "Centra Robinstown", "address": "Texaco Service Station, Robinstown (Tyrell), Mullingar, Co. Westmeath, N91 KV6P, Ireland", "latitude": 53.540357, "longitude": -7.342858399999999, "rating": 2.3}]