[{"name": "Emo Wexford", "address": "White Mill Rd, Newtown, Wexford, Ireland", "latitude": 52.3296207, "longitude": -6.476846699999999, "rating": 3, "county": "Wexford"}, {"name": "Top Oil Wexford Doyle's Service Station", "address": "1798 Street, Redmond Rd, Ferrybank South, Wexford, Y35 V4XD, Ireland", "latitude": 52.3431355, "longitude": -6.4670637, "rating": 4.4, "county": "Wexford"}, {"name": "Maxol Auto24 Trinity Street", "address": "Trinity St, Maudlintown, Wexford, Y35 W7VY, Ireland", "latitude": 52.33414579999999, "longitude": -6.4548011, "rating": 4.3, "county": "Wexford"}, {"name": "Texaco Boggans", "address": "Newtown Rd, Carricklawn, Wexford, Y35 CRX7, Ireland", "latitude": 52.3424159, "longitude": -6.4867211, "rating": 4.1, "county": "Wexford"}, {"name": "Circle K", "address": "Clonard, Wexford, Ireland", "latitude": 52.330203, "longitude": -6.494115499999999, "rating": 4.4, "county": "Wexford"}, {"name": "Breast Pump", "address": "82 N Main St, Ferrybank South, Wexford, Y35 XYV8, Ireland", "latitude": 52.3408392, "longitude": -6.4628353, "rating": 5, "county": "Wexford"}, {"name": "Certa", "address": "Distillery Rd, Whitewell, Wexford, Y35 FR98, Ireland", "latitude": 52.3310677, "longitude": -6.4628839, "rating": 4.1, "county": "Wexford"}, {"name": "Tesco", "address": "Distillery Rd, Whitewell, Wexford, Y35 A3P8, Ireland", "latitude": 52.3311089, "longitude": -6.4627921, "rating": 0, "county": "Wexford"}, {"name": "Emo Oil - Killeen's Mace & Service Station", "address": "New Line Road, Wexford, Ireland", "latitude": 52.3238995, "longitude": -6.4927855, "rating": 3.7, "county": "Wexford"}, {"name": "Inver", "address": "Rosslare Rd, Rocklands, Wexford, Y35 KR2Y, Ireland", "latitude": 52.3263593, "longitude": -6.4510128, "rating": 4.1, "county": "Wexford"}, {"name": "Applegreen", "address": "Newtown Rd, Ballyboggan, Wexford, Y35 D7XW, Ireland", "latitude": 52.3407456, "longitude": -6.502274099999999, "rating": 4.3, "county": "Wexford"}, {"name": "The Buggy Bar", "address": "Trinity St, Maudlintown, Wexford, Ireland", "latitude": 52.3339836, "longitude": -6.454879699999999, "rating": 5, "county": "Wexford"}, {"name": "Circle K", "address": "Crosstown, Co. Wexford, Y35 H0KW, Ireland", "latitude": 52.359821, "longitude": -6.452868, "rating": 4.1, "county": "Wexford"}, {"name": "Circle K Costcutter Newline Stores", "address": "Newline stores, Clonard Rd, Clonard Little, Wexford, Y35 XND4, Ireland", "latitude": 52.3301727, "longitude": -6.4939183, "rating": 4.5, "county": "Wexford"}, {"name": "Drinagh Service Station", "address": "Rosslare Rd, Roughmead, Drinagh, Co. Wexford, Y35 HD9X, Ireland", "latitude": 52.3099776, "longitude": -6.457063799999999, "rating": 4.5, "county": "Wexford"}, {"name": "topaz", "address": "Maudlintown, Wexford, Ireland", "latitude": 52.326452, "longitude": -6.451009099999999, "rating": 4, "county": "Wexford"}, {"name": "Centra Whitemill", "address": "Whitemills Service Station, Newtown, Wexford, Y35 KX0D, Ireland", "latitude": 52.3296673, "longitude": -6.4769593, "rating": 3.6, "county": "Wexford"}, {"name": "Roches Service Station Drinagh Motors Wexford", "address": "Blackhorse, Drinagh, Co. Wexford, Y35 PX2D, Ireland", "latitude": 52.2999574, "longitude": -6.458777599999999, "rating": 4.1, "county": "Wexford"}, {"name": "Maxol Service Station Ardcavan", "address": "Ardcavan, Castlebridge, Co. Wexford, Y35 X48P, Ireland", "latitude": 52.3663749, "longitude": -6.448913999999999, "rating": 0, "county": "Wexford"}, {"name": "Top Oil O'Briens Londis", "address": "Barntown, Larkin's Cross, Co. Wexford, Y35 TR2A, Ireland", "latitude": 52.3394837, "longitude": -6.5647601, "rating": 4.4, "county": "Wexford"}, {"name": "Emo Oil Castlebridge", "address": "R741, Castlebridge, Co. Wexford, Ireland", "latitude": 52.381816, "longitude": -6.450158, "rating": 4.7, "county": "Wexford"}, {"name": "Top Oil Geelan's Filling Station", "address": "R733, Waddingtown, Cleariestown, Co. Wexford, Y35 W30E, Ireland", "latitude": 52.2844944, "longitude": -6.6337875, "rating": 4.6, "county": "Wexford"}, {"name": "XL Shop Wexford", "address": "Bellevue, Co. Wexford, Ireland", "latitude": 52.3839755, "longitude": -6.5785754, "rating": 4.5, "county": "Wexford"}, {"name": "Texaco Service Station", "address": "Rosslare Intake, Killinick, Co. Wexford, Ireland", "latitude": 52.2574419, "longitude": -6.4560983, "rating": 4.6, "county": "Wexford"}, {"name": "Top Oil Garry's Service Station", "address": "N11, Tinnahask, Oilgate, Co. Wexford, Y21 H9N9, Ireland", "latitude": 52.4161849, "longitude": -6.525528200000001, "rating": 4.5, "county": "Wexford"}, {"name": "C.J. Murphy", "address": "Ballymurn Upper, Co. Wexford, Ireland", "latitude": 52.44045999999999, "longitude": -6.47566, "rating": 4.3, "county": "Wexford"}, {"name": "Great Gas Rosslare", "address": "Rosslare Harbour Garda Station, St Martin's Rd, Ballygillane Big, Rosslare Harbour, Co. Wexford, Ireland", "latitude": 52.25086810000001, "longitude": -6.342853, "rating": 4.4, "county": "Wexford"}, {"name": "Maxol", "address": "Barnahask, Co. Wexford, Ireland", "latitude": 52.3929783, "longitude": -6.3878396, "rating": 4.3, "county": "Wexford"}, {"name": "Campus Main Street", "address": "Poulmarl, Co. Wexford, Ireland", "latitude": 52.3225, "longitude": -6.65314, "rating": 4.6, "county": "Wexford"}, {"name": "Costcutter Express", "address": "Ballymurn, Ballymurn Upper, Ballymurn, Co. Wexford, Ireland", "latitude": 52.4405118, "longitude": -6.475335299999999, "rating": 0, "county": "Wexford"}, {"name": "Circle K R700", "address": "Quayside, Wexford Road, New Ross, Co. Wexford, Ireland", "latitude": 52.4055109, "longitude": -6.935250399999999, "rating": 4.3, "county": "Wexford"}, {"name": "Rosslare Service Station", "address": "10 Sandy Ln, Mauritiustown, Rosslare, Co. Wexford, Y35 EV78, Ireland", "latitude": 52.2645855, "longitude": -6.3949441, "rating": 4.1, "county": "Wexford"}, {"name": "Campus", "address": "Ballynaglogh, Co. Wexford, Ireland", "latitude": 52.44614860000001, "longitude": -6.347937099999999, "rating": 4, "county": "Wexford"}, {"name": "McSorley's Centra Quarry Park", "address": "R890, Blackstoops, Enniscorthy, Co. Wexford, Ireland", "latitude": 52.5125488, "longitude": -6.5668697, "rating": 4, "county": "Wexford"}, {"name": "Donohoe's Filling Station", "address": "Hempfield, Templeshannon, Enniscorthy, Co. Wexford, Y21 DW01, Ireland", "latitude": 52.50834210000001, "longitude": -6.558422500000001, "rating": 5, "county": "Wexford"}, {"name": "Morgan Fuels Ireland Ltd Rosslare Harbour", "address": "N 25, Newry, Co. Wexford, Ireland", "latitude": 52.247041, "longitude": -6.3450609, "rating": 4.2, "county": "Wexford"}, {"name": "McDonnells Supermarket & Auto Service", "address": "Common, Bridgetown, Co. Wexford, Ireland", "latitude": 52.2455556, "longitude": -6.5488889, "rating": 5, "county": "Wexford"}, {"name": "Top Oil Killinick Kiely's Centra", "address": "N25, Fernyhill, Killinick, Co. Wexford, Y35 FKP5, Ireland", "latitude": 52.2574355, "longitude": -6.4552898, "rating": 5, "county": "Wexford"}, {"name": "Top Oil Tomnalosset Service Station", "address": "L2045, Tomnalossett, Enniscorthy, Co. Wexford, Y21 P7D4, Ireland", "latitude": 52.4809596, "longitude": -6.588677, "rating": 4.4, "county": "Wexford"}, {"name": "Amber", "address": "Fernyhill, Co. Wexford, Ireland", "latitude": 52.25754, "longitude": -6.4558, "rating": 4, "county": "Wexford"}, {"name": "Drive service station Quarrypark", "address": "Quarry Park, Blackstoops, Enniscorthy, Co. Wexford, Y21 R6Y3, Ireland", "latitude": 52.5125733, "longitude": -6.5668524, "rating": 4.3, "county": "Wexford"}, {"name": "Texaco", "address": "Ballygillane Big, Co. Wexford, Y35 REH3, Ireland", "latitude": 52.2508789, "longitude": -6.342839199999999, "rating": 3.3, "county": "Wexford"}, {"name": "Maxol Service Station, Downes", "address": "Ballyrea, Co. Wexford, Y25 X6C5, Ireland", "latitude": 52.5375175, "longitude": -6.348122999999999, "rating": 4.4, "county": "Wexford"}, {"name": "Daybreak Service Station", "address": "Knockavilla Service Station, Knockavilla, New Ross, Co. Wexford, Y34 HT25, Ireland", "latitude": 52.40544509999999, "longitude": -6.9352706, "rating": 4.3, "county": "Wexford"}]