[{"name": "Circle K", "address": "Dublin Road, Glebe, Wicklow, A67 XK44, Ireland", "latitude": 52.9861885, "longitude": -6.0591148, "rating": 3.2, "county": "Wicklow"}, {"name": "Kings Gala & Circle K", "address": "Whitegate, Bollarney South, Wicklow, A67 WK07, Ireland", "latitude": 52.9836937, "longitude": -6.0514994, "rating": 4.5, "county": "Wicklow"}, {"name": "Applegreen", "address": "Main St, Commons, Wicklow, A67 VF97, Ireland", "latitude": 52.9961555, "longitude": -6.0835244, "rating": 4.1, "county": "Wicklow"}, {"name": "campus", "address": "Church Hill, Bollarney South, Wicklow, Ireland", "latitude": 52.9834633, "longitude": -6.0513569, "rating": 5, "county": "Wicklow"}, {"name": "Maxol Service Station Rathnew", "address": "Tighe Avenue, Rossana Lower, Rathnew, Co. Wicklow, A67 HT78, Ireland", "latitude": 52.99962, "longitude": -6.08733, "rating": 4.4, "county": "Wicklow"}, {"name": "Barndarrig Service Station", "address": "Kilbride, Co. Wicklow, Ireland", "latitude": 52.9132444, "longitude": -6.110393699999999, "rating": 3.7, "county": "Wicklow"}, {"name": "Circle K", "address": "Main Street, Ashford, Co. Wicklow, A67 EP60, Ireland", "latitude": 53.01141, "longitude": -6.108408, "rating": 4.2, "county": "Wicklow"}, {"name": "Easy Fuels Barndarrig", "address": "Ballinacor East, Co. Wicklow, Ireland", "latitude": 52.9138427, "longitude": -6.110805099999999, "rating": 4.1, "county": "Wicklow"}, {"name": "Applegreen", "address": "Cullenmore, Co. Wicklow, A67 WR12, Ireland", "latitude": 53.0442788, "longitude": -6.0904133, "rating": 4.1, "county": "Wicklow"}, {"name": "Centra Topaz", "address": "Church Rd, Rathdown Lower, Wicklow, A63 Y825, Ireland", "latitude": 53.1494734, "longitude": -6.070924, "rating": 3.6, "county": "Wicklow"}, {"name": "Great Gas", "address": "Rathdrum, Co. Wicklow, A67 X270, Ireland", "latitude": 52.9355933, "longitude": -6.229284, "rating": 0, "county": "Wicklow"}, {"name": "Top Oil Junction 12 Newtownmountkennedy", "address": "R772, Kilmacullagh, Newtown Mount Kennedy, Co. Wicklow, A63 RW02, Ireland", "latitude": 53.0979191, "longitude": -6.1087257, "rating": 4, "county": "Wicklow"}, {"name": "Petrol and Diesel", "address": "Saint Helenes, 1 Brockagh, Ballard, Glendalough, Co. Wicklow, A98 HF80, Ireland", "latitude": 53.0089656, "longitude": -6.2996016, "rating": 4.7, "county": "Wicklow"}, {"name": "Kilpedder Filling Station", "address": "13 Glenview Park, Bromley, Kilpedder, Co. Wicklow, A63 NF70, Ireland", "latitude": 53.1134266, "longitude": -6.1071224, "rating": 4.6, "county": "Wicklow"}, {"name": "Top Oil Newcastle Service Station", "address": "Newcastle Middle, Newcastle, Co. Wicklow, A63 YK12, Ireland", "latitude": 53.0700769, "longitude": -6.062671099999999, "rating": 4.2, "county": "Wicklow"}, {"name": "Great Gas", "address": "Ballard, Laragh, Co. Wicklow, A98 V3H0, Ireland", "latitude": 53.0089699, "longitude": -6.299495100000001, "rating": 0, "county": "Wicklow"}, {"name": "Certa", "address": "Lower St, Rathdrum, Co. Wicklow, A67 X270, Ireland", "latitude": 52.9355658, "longitude": -6.2292048, "rating": 4.2, "county": "Wicklow"}, {"name": "Circle K Express", "address": "Church Rd, Rathdown Lower, Greystones, Co. Wicklow, A63 PP58, Ireland", "latitude": 53.1496159, "longitude": -6.071064499999999, "rating": 3.3, "county": "Wicklow"}, {"name": "Circle K Rockfield", "address": "Rockfield Park, Kilmacanoge North, Kilmacanoge, Co. Wicklow, Ireland", "latitude": 53.168948, "longitude": -6.136324999999999, "rating": 4, "county": "Wicklow"}, {"name": "Circle K Kilcoole", "address": "Main St, Kilcoole, Co. Wicklow, A63 YE00, Ireland", "latitude": 53.110255, "longitude": -6.0657995, "rating": 4, "county": "Wicklow"}, {"name": "Byrne's Filling Station", "address": "Main St, Aughrim Lower, Aughrim, Co. Wicklow, Y14 F7P9, Ireland", "latitude": 52.85582059999999, "longitude": -6.325613199999999, "rating": 3.4, "county": "Wicklow"}, {"name": "O'Mahony Bros", "address": "Arklow, Killiniskyduff, Arklow, Co. Wicklow, Ireland", "latitude": 52.8114849, "longitude": -6.1500521, "rating": 5, "county": "Wicklow"}, {"name": "Circle K", "address": "Kilmacanoge North, Kilmacanogue, Co. Wicklow, Ireland", "latitude": 53.173762, "longitude": -6.140283999999999, "rating": 3.4, "county": "Wicklow"}, {"name": "Circle K Kilmacanogue (N11 Southbound)", "address": "Kilmacanoge North, Co. Wicklow, A98 D6Y4, Ireland", "latitude": 53.1696955, "longitude": -6.135762199999999, "rating": 4, "county": "Wicklow"}, {"name": "Maxol Service Station Vevay Road", "address": "Vevay Rd, Bray, Co. Wicklow, A98 E9T2, Ireland", "latitude": 53.19550599999999, "longitude": -6.1074958, "rating": 4.1, "county": "Wicklow"}, {"name": "Circle K", "address": "Bray Road, Rathdown Lower, Greystones, Co. Wicklow, Ireland", "latitude": 53.1517426, "longitude": -6.081567, "rating": 3.3, "county": "Wicklow"}]