[{"name": "Circle K", "address": "Dublin Road, Glebe, Wicklow, A67 XK44, Ireland", "latitude": 52.9861885, "longitude": -6.0591148, "rating": 3.2}, {"name": "Kings Gala & Circle K", "address": "Whitegate, Bollarney South, Wicklow, A67 WK07, Ireland", "latitude": 52.9836937, "longitude": -6.0514994, "rating": 4.5}, {"name": "Applegreen", "address": "Main St, Commons, Wicklow, A67 VF97, Ireland", "latitude": 52.9961555, "longitude": -6.0835244, "rating": 4.1}, {"name": "campus", "address": "Church Hill, Bollarney South, Wicklow, Ireland", "latitude": 52.9834633, "longitude": -6.0513569, "rating": 5}, {"name": "Maxol Service Station Rathnew", "address": "Tighe Avenue, Rossana Lower, Rathnew, Co. Wicklow, A67 HT78, Ireland", "latitude": 52.99962, "longitude": -6.08733, "rating": 4.4}, {"name": "Barndarrig Service Station", "address": "Kilbride, Co. Wicklow, Ireland", "latitude": 52.9132444, "longitude": -6.110393699999999, "rating": 3.7}, {"name": "Circle K", "address": "Main Street, Ashford, Co. Wicklow, A67 EP60, Ireland", "latitude": 53.01141, "longitude": -6.108408, "rating": 4.2}, {"name": "Easy Fuels Barndarrig", "address": "Ballinacor East, Co. Wicklow, Ireland", "latitude": 52.9138427, "longitude": -6.110805099999999, "rating": 4.1}, {"name": "Applegreen", "address": "Cullenmore, Co. Wicklow, A67 WR12, Ireland", "latitude": 53.0442788, "longitude": -6.0904133, "rating": 4.1}, {"name": "Centra Topaz", "address": "Church Rd, Rathdown Lower, Wicklow, A63 Y825, Ireland", "latitude": 53.1494734, "longitude": -6.070924, "rating": 3.6}, {"name": "Kilpedder Filling Station", "address": "13 Glenview Park, Bromley, Kilpedder, Co. Wicklow, A63 NF70, Ireland", "latitude": 53.1134266, "longitude": -6.1071224, "rating": 4.6}, {"name": "Great Gas", "address": "Rathdrum, Co. Wicklow, A67 X270, Ireland", "latitude": 52.9355933, "longitude": -6.229284, "rating": 0}, {"name": "Top Oil Newcastle Service Station", "address": "Newcastle Middle, Newcastle, Co. Wicklow, A63 YK12, Ireland", "latitude": 53.0700769, "longitude": -6.062671099999999, "rating": 4.2}, {"name": "Top Oil Junction 12 Newtownmountkennedy", "address": "R772, Kilmacullagh, Newtown Mount Kennedy, Co. Wicklow, A63 RW02, Ireland", "latitude": 53.0979191, "longitude": -6.1087257, "rating": 4}, {"name": "Petrol and Diesel", "address": "Saint Helenes, 1 Brockagh, Ballard, Glendalough, Co. Wicklow, A98 HF80, Ireland", "latitude": 53.0089656, "longitude": -6.2996016, "rating": 4.7}, {"name": "Great Gas", "address": "Ballard, Laragh, Co. Wicklow, A98 V3H0, Ireland", "latitude": 53.0089699, "longitude": -6.299495100000001, "rating": 0}, {"name": "Ultima Oil Filling Station", "address": "Bromley, Kilpedder, Co. Wicklow, Ireland", "latitude": 53.11336679999999, "longitude": -6.1070378, "rating": 4.9}, {"name": "Certa", "address": "Lower St, Rathdrum, Co. Wicklow, A67 X270, Ireland", "latitude": 52.9355658, "longitude": -6.2292048, "rating": 4.2}, {"name": "Maxol Service Station Vevay Road", "address": "Vevay Rd, Bray, Co. Wicklow, A98 E9T2, Ireland", "latitude": 53.19550599999999, "longitude": -6.1074958, "rating": 4.1}, {"name": "Circle K Express", "address": "Church Rd, Rathdown Lower, Greystones, Co. Wicklow, A63 PP58, Ireland", "latitude": 53.1496159, "longitude": -6.071064499999999, "rating": 3.3}, {"name": "Circle K Kilcoole", "address": "Main St, Kilcoole, Co. Wicklow, A63 YE00, Ireland", "latitude": 53.110255, "longitude": -6.0657995, "rating": 4}, {"name": "Byrne's Filling Station", "address": "Main St, Aughrim Lower, Aughrim, Co. Wicklow, Y14 F7P9, Ireland", "latitude": 52.85582059999999, "longitude": -6.325613199999999, "rating": 3.4}, {"name": "Circle K Rockfield", "address": "Rockfield Park, Kilmacanoge North, Kilmacanoge, Co. Wicklow, Ireland", "latitude": 53.168948, "longitude": -6.136324999999999, "rating": 4}, {"name": "Kilmacanogue Service Station", "address": "N11, Kilmacanoge North, Kilmacanoge, Co. Wicklow, Ireland", "latitude": 53.1690493, "longitude": -6.1364154, "rating": 4}, {"name": "Hills Service Station", "address": "Bray, Ballywaltrin, Bray, Co. Wicklow, Ireland", "latitude": 53.1823263, "longitude": -6.1328164, "rating": 4}, {"name": "O'Mahony Bros", "address": "Arklow, Killiniskyduff, Arklow, Co. Wicklow, Ireland", "latitude": 52.8114849, "longitude": -6.1500521, "rating": 5}, {"name": "Circle K", "address": "Kilmacanoge North, Kilmacanogue, Co. Wicklow, Ireland", "latitude": 53.173762, "longitude": -6.140283999999999, "rating": 3.4}, {"name": "Circle K Kilmacanogue (N11 Southbound)", "address": "Kilmacanoge North, Co. Wicklow, A98 D6Y4, Ireland", "latitude": 53.1696955, "longitude": -6.135762199999999, "rating": 4}, {"name": "Circle K", "address": "Bray Road, Rathdown Lower, Greystones, Co. Wicklow, Ireland", "latitude": 53.1517426, "longitude": -6.081567, "rating": 3.3}, {"name": "Top R761", "address": "Newcastle Middle, Co. Wicklow, Ireland", "latitude": 53.0700468, "longitude": -6.062771199999999, "rating": 4.3}, {"name": "Emo Oil - S&M Delaney Limited", "address": "Ballyarthur, Arklow, Co. Wicklow, Ireland", "latitude": 52.830239, "longitude": -6.234011, "rating": 4.2}, {"name": "Circle K Safeway", "address": "Dublin Rd, Ferrybank, Arklow, Co. Wicklow, Ireland", "latitude": 52.8030987, "longitude": -6.147880499999999, "rating": 4.1}, {"name": "Safeway Garage Arklow", "address": "Arklow, Ferrybank, Arklow, Co. Wicklow, Ireland", "latitude": 52.8030407, "longitude": -6.147939399999999, "rating": 0}, {"name": "Candy's & Convenience Store", "address": "Carnew, Co. Wicklow, Ireland", "latitude": 52.7124459, "longitude": -6.5055461, "rating": 4.5}, {"name": "Certa", "address": "Wexford Rd, Abbeylands, Arklow, Co. Wicklow, Y14 NP59, Ireland", "latitude": 52.79578739999999, "longitude": -6.160548899999999, "rating": 3.9}, {"name": "Topaz", "address": "Cork Great, Bray, Co. Wicklow, Ireland", "latitude": 53.2099948, "longitude": -6.116089499999999, "rating": 0}, {"name": "Circle K", "address": "Hollybrook, Ballywaltrim Ln, Brenanstown, Bray, Co. Wicklow, Ireland", "latitude": 53.1822953, "longitude": -6.1326684, "rating": 3.4}, {"name": "Texaco", "address": "Monastery Road, Enniskerry, Dublin, Co. Wicklow, A98 DY07, Ireland", "latitude": 53.2033736, "longitude": -6.175835999999999, "rating": 4.1}, {"name": "Top Oil Sweeneys Garage", "address": "Sea Rd, Ferrybank, Arklow, Co. Wicklow, Y14 NH56, Ireland", "latitude": 52.8028361, "longitude": -6.144686099999999, "rating": 4.4}, {"name": "Autogas Arklow LPG Station", "address": "38 Yellow Ln, Knockanrahan Lower, Arklow, Co. Wicklow, Y14 N821, Ireland", "latitude": 52.7899968, "longitude": -6.1622872, "rating": 4}, {"name": "Emo Oil Daly's Service Station", "address": "N81, Knockroe, Hollywood, Co. Wicklow, Ireland", "latitude": 53.0913118, "longitude": -6.6059829, "rating": 4.3}, {"name": "Top Oil Whelan's Lugduff Service Station", "address": "R747, Lugduff, Tinahely, Co. Wicklow, Y14 X950, Ireland", "latitude": 52.7940628, "longitude": -6.453902299999999, "rating": 4.2}, {"name": "Applegreen Arklow", "address": "Wexford Rd, Knockanrahan Lower, Arklow, Co. Wicklow, Y14 ED27, Ireland", "latitude": 52.7884202, "longitude": -6.166364499999999, "rating": 4}, {"name": "Circle K", "address": "Dublin Rd, Cork Great, Bray, Co. Wicklow, A98 P9X2, Ireland", "latitude": 53.21001099999999, "longitude": -6.116018, "rating": 4.1}, {"name": "Burmah R748", "address": "Carnew, Co. Wicklow, Ireland", "latitude": 52.7108271, "longitude": -6.4929028, "rating": 4}, {"name": "Top Oil Walkers Of Shillelagh", "address": "Main St, Ballard, Shillelagh, Co. Wicklow, Y14 XF95, Ireland", "latitude": 52.754538, "longitude": -6.5382129, "rating": 4.3}, {"name": "Texaco N81", "address": "Lake Service Station, Baltinglass Road, Burgage More, Blessington, Co. Wicklow, Ireland", "latitude": 53.1636821, "longitude": -6.5432438, "rating": 4.2}, {"name": "Circle K", "address": "Main St, Haylands, Blessington, Co. Wicklow, Ireland", "latitude": 53.172894, "longitude": -6.530119, "rating": 3.1}, {"name": "Londis O'Reilly's Baltinglass", "address": "Weaver's Square, Carsrock, Baltinglass, Co. Wicklow, W91 F5D4, Ireland", "latitude": 52.9386597, "longitude": -6.7038189, "rating": 4.4}, {"name": "Maxol Service Station, Fisher's", "address": "Baltinglass East, Co. Wicklow, Ireland", "latitude": 52.9398153, "longitude": -6.7103294, "rating": 4.4}, {"name": "Maxol Service Station Blessington", "address": "Main St, Haylands, Blessington, Co. Wicklow, W91 D93C, Ireland", "latitude": 53.1747603, "longitude": -6.5277575, "rating": 4}, {"name": "Morris Oil Kilinure", "address": "Coolkenna, Killinure Lower, Co. Wicklow, Ireland", "latitude": 52.7919503, "longitude": -6.6181546, "rating": 0}, {"name": "Centra Greystones", "address": "Church Rd, Rathdown Lower, Wicklow, A63 Y825, Ireland", "latitude": 53.149547, "longitude": -6.07085, "rating": 3.1}, {"name": "Pat Sweeney's", "address": "Arklow, Ferrybank, Arklow, Co. Wicklow, Ireland", "latitude": 52.8029603, "longitude": -6.1444899, "rating": 4.8}, {"name": "Circle K", "address": "Dublin Rd, Cork Great, Bray, Co. Wicklow, Ireland", "latitude": 53.2122888, "longitude": -6.1184899, "rating": 4.2}, {"name": "Top Oil Baltinglass", "address": "Edward Street, Baltinglass East, Baltinglass, Co. Wicklow, W91 A56T, Ireland", "latitude": 52.9396307, "longitude": -6.7100453, "rating": 0}, {"name": "Tesco", "address": "Wexford Rd, Abbeylands, Arklow, Co. Wicklow, Y14 T864, Ireland", "latitude": 52.7957316, "longitude": -6.1605101, "rating": 0}, {"name": "Kings Filling Station", "address": "Arklow Rd, Clonatin Lower, Gorey, Co. Wexford, Ireland", "latitude": 52.6826871, "longitude": -6.2826844, "rating": 4.4}, {"name": "Topaz/Re.Store", "address": "Tallaght, Dublin, Ireland", "latitude": 53.28723069999999, "longitude": -6.345548600000001, "rating": 0}, {"name": "Centra Baltinglass", "address": "Edward Street, Baltinglass East, Baltinglass, Co. Wicklow, W91 A56T, Ireland", "latitude": 52.939894, "longitude": -6.710378, "rating": 3.9}]